REPORTS/contacts_600_01.txt

Target: DALA_SatFine

Observer: Montegancedo
Start Time (UTC)            Stop Time (UTC)               Duration (s)         
02 Oct 2031 13:08:34.896    02 Oct 2031 13:42:07.038      2012.1420526    
02 Oct 2031 14:16:00.762    02 Oct 2031 17:13:33.854      10653.091370    
02 Oct 2031 17:47:29.052    02 Oct 2031 20:45:00.297      10651.244326    
03 Oct 2031 13:05:15.867    03 Oct 2031 14:22:06.276      4610.4081791    
03 Oct 2031 14:56:05.232    03 Oct 2031 17:53:31.149      10645.916803    
03 Oct 2031 18:27:30.906    03 Oct 2031 20:43:08.168      8137.2618031    
04 Oct 2031 13:01:59.905    04 Oct 2031 15:02:05.456      7205.5515442    
04 Oct 2031 15:36:13.002    04 Oct 2031 18:33:31.004      10638.002042    
04 Oct 2031 19:07:39.539    04 Oct 2031 20:39:47.157      5527.6185808    
05 Oct 2031 12:58:43.902    05 Oct 2031 15:42:04.388      9800.4862685    
05 Oct 2031 16:16:21.443    05 Oct 2031 19:13:31.214      10629.771166    
05 Oct 2031 19:47:50.718    05 Oct 2031 20:36:24.586      2913.8682098    
06 Oct 2031 13:25:18.784    06 Oct 2031 16:22:14.173      10615.389501    
06 Oct 2031 16:56:46.907    06 Oct 2031 19:53:40.409      10613.502858    
06 Oct 2031 20:28:14.549    06 Oct 2031 20:33:00.048      285.49865952    
07 Oct 2031 12:52:07.709    07 Oct 2031 13:30:52.205      2324.4961627    
07 Oct 2031 14:05:35.433    07 Oct 2031 17:02:19.267      10603.834028    
07 Oct 2031 17:37:04.804    07 Oct 2031 20:29:36.043      10351.238932    
08 Oct 2031 12:48:51.794    08 Oct 2031 14:10:59.066      4927.2725840    
08 Oct 2031 14:45:54.245    08 Oct 2031 17:42:24.773      10590.527973    
08 Oct 2031 18:17:20.965    08 Oct 2031 20:26:15.468      7734.5038131    
09 Oct 2031 12:45:38.601    09 Oct 2031 14:51:02.317      7523.7154265    
09 Oct 2031 15:26:08.238    09 Oct 2031 18:22:28.821      10580.583419    
09 Oct 2031 18:57:36.189    09 Oct 2031 20:22:57.242      5121.0529356    
10 Oct 2031 12:42:25.077    10 Oct 2031 15:30:59.697      10114.619936    
10 Oct 2031 16:06:08.943    10 Oct 2031 19:02:24.138      10575.195548    
10 Oct 2031 19:37:33.616    10 Oct 2031 20:19:37.149      2523.5324945    
11 Oct 2031 12:39:09.834    11 Oct 2031 12:39:29.581      19.746993575    
11 Oct 2031 13:14:43.330    11 Oct 2031 16:10:54.750      10571.419708    
11 Oct 2031 16:46:09.225    11 Oct 2031 19:42:19.693      10570.468492    
12 Oct 2031 12:35:54.006    12 Oct 2031 13:19:23.180      2609.1748143    
12 Oct 2031 13:54:41.687    12 Oct 2031 16:50:48.604      10566.917610    
12 Oct 2031 17:26:08.803    12 Oct 2031 20:12:54.310      10005.507135    
13 Oct 2031 12:32:40.954    13 Oct 2031 13:59:26.930      5205.9762454    
13 Oct 2031 14:34:59.785    13 Oct 2031 17:30:52.877      10553.092407    
13 Oct 2031 18:06:27.119    13 Oct 2031 20:09:36.894      7389.7746391    
14 Oct 2031 12:29:30.268    14 Oct 2031 14:39:27.446      7797.1776188    
14 Oct 2031 15:15:11.124    14 Oct 2031 18:10:53.967      10542.843038    
14 Oct 2031 18:46:39.941    14 Oct 2031 20:06:21.307      4781.3660617    
15 Oct 2031 12:26:19.000    15 Oct 2031 15:19:32.022      10393.022190    
15 Oct 2031 15:55:28.588    15 Oct 2031 18:50:57.612      10529.023971    
15 Oct 2031 19:26:55.350    15 Oct 2031 20:03:03.636      2168.2853084    
16 Oct 2031 12:23:05.999    16 Oct 2031 12:28:08.052      302.05364667    
16 Oct 2031 13:04:15.209    16 Oct 2031 15:59:34.762      10519.553718    
16 Oct 2031 16:35:44.186    16 Oct 2031 19:31:01.418      10517.231804    
17 Oct 2031 12:19:52.654    17 Oct 2031 13:08:09.794      2897.1404044    
17 Oct 2031 13:44:26.102    17 Oct 2031 16:39:34.629      10508.526761    
17 Oct 2031 17:15:51.472    17 Oct 2031 19:56:26.386      9634.9144045    
18 Oct 2031 12:16:42.205    18 Oct 2031 13:48:07.290      5485.0843718    
18 Oct 2031 14:24:32.310    18 Oct 2031 17:19:33.051      10500.740924    
18 Oct 2031 17:55:59.530    18 Oct 2031 19:53:11.986      7032.4556898    
19 Oct 2031 12:13:33.768    19 Oct 2031 14:28:05.348      8071.5800947    
19 Oct 2031 15:04:39.907    19 Oct 2031 17:59:31.320      10491.412514    
19 Oct 2031 18:36:08.237    19 Oct 2031 19:49:58.886      4430.6485382    
20 Oct 2031 12:13:38.503    20 Oct 2031 15:08:13.159      10474.655510    
20 Oct 2031 15:45:08.129    20 Oct 2031 18:39:39.852      10471.722584    
20 Oct 2031 19:16:37.141    20 Oct 2031 19:46:43.547      1806.4056717    
21 Oct 2031 12:07:13.574    21 Oct 2031 12:16:51.672      578.09781299    
21 Oct 2031 12:54:00.303    21 Oct 2031 15:48:18.480      10458.176787    
21 Oct 2031 16:25:30.058    21 Oct 2031 19:19:45.551      10455.492995    
22 Oct 2031 12:04:02.510    22 Oct 2031 12:57:00.832      3178.3225772    
22 Oct 2031 13:34:29.248    22 Oct 2031 16:28:27.197      10437.949012    
22 Oct 2031 17:05:57.491    22 Oct 2031 19:40:11.675      9254.1843250    
23 Oct 2031 12:00:54.394    23 Oct 2031 13:37:05.913      5771.5195216    
23 Oct 2031 14:14:50.041    23 Oct 2031 17:08:32.930      10422.889046    
23 Oct 2031 17:46:19.878    23 Oct 2031 19:37:00.103      6640.2251271    
24 Oct 2031 11:57:47.939    24 Oct 2031 14:17:10.230      8362.2911593    
24 Oct 2031 14:55:06.362    24 Oct 2031 17:48:35.389      10409.027443    
24 Oct 2031 18:26:32.051    24 Oct 2031 19:33:49.312      4037.2610396    
25 Oct 2031 12:03:45.223    25 Oct 2031 14:57:08.415      10403.192605    
25 Oct 2031 15:35:12.498    25 Oct 2031 18:28:34.117      10401.618977    
25 Oct 2031 19:06:39.465    25 Oct 2031 19:30:36.195      1436.7299076    
26 Oct 2031 11:51:31.345    26 Oct 2031 12:05:40.128      848.78311618    
26 Oct 2031 12:43:49.610    26 Oct 2031 15:37:05.339      10395.728937    
26 Oct 2031 16:15:16.127    26 Oct 2031 19:08:30.858      10394.731359    
27 Oct 2031 11:48:22.319    27 Oct 2031 12:45:42.822      3440.5027188    
27 Oct 2031 13:24:08.475    27 Oct 2031 16:17:09.258      10380.783010    
27 Oct 2031 16:55:37.150    27 Oct 2031 19:24:09.484      8912.3339180    
28 Oct 2031 11:45:16.241    28 Oct 2031 13:25:44.500      6028.2583901    
28 Oct 2031 14:04:22.673    28 Oct 2031 16:57:10.636      10367.963455    
28 Oct 2031 17:35:51.140    28 Oct 2031 19:21:00.573      6309.4324666    
29 Oct 2031 11:42:11.494    29 Oct 2031 14:05:49.323      8617.8295647    
29 Oct 2031 14:44:43.918    29 Oct 2031 17:37:15.204      10351.285358    
29 Oct 2031 18:16:11.213    29 Oct 2031 19:17:51.956      3700.7436761    
30 Oct 2031 11:53:28.994    30 Oct 2031 14:45:50.779      10341.784734    
30 Oct 2031 15:24:57.865    30 Oct 2031 18:17:17.305      10339.439965    
30 Oct 2031 18:56:26.930    30 Oct 2031 19:14:40.980      1094.0499418    
31 Oct 2031 11:35:58.048    31 Oct 2031 11:54:27.778      1109.7302266    
31 Oct 2031 12:33:45.394    31 Oct 2031 15:25:52.953      10327.559529    
31 Oct 2031 16:05:11.013    31 Oct 2031 18:57:17.955      10326.942376    
01 Nov 2031 11:32:50.854    01 Nov 2031 12:34:24.288      3693.4338278    
01 Nov 2031 13:13:48.132    01 Nov 2031 16:05:49.960      10321.828048    
01 Nov 2031 16:45:15.346    01 Nov 2031 19:08:19.250      8583.9037139    
02 Nov 2031 11:29:46.570    02 Nov 2031 13:14:21.783      6275.2131604    
02 Nov 2031 13:53:53.482    02 Nov 2031 16:45:47.026      10313.543882    
02 Nov 2031 17:25:20.164    02 Nov 2031 19:05:12.842      5992.6780516    
03 Nov 2031 11:26:43.313    03 Nov 2031 13:54:24.907      8861.5948337    
03 Nov 2031 14:34:15.194    03 Nov 2031 17:25:51.598      10296.404859    
03 Nov 2031 18:05:44.776    03 Nov 2031 19:02:06.277      3381.5010479    
04 Nov 2031 11:43:07.637    04 Nov 2031 14:34:29.014      10281.377418    
04 Nov 2031 15:14:36.607    04 Nov 2031 18:05:55.516      10278.908936    
04 Nov 2031 18:46:06.156    04 Nov 2031 18:58:57.360      771.20384539    
05 Nov 2031 11:20:32.649    05 Nov 2031 11:43:10.307      1357.6578209    
05 Nov 2031 12:23:37.892    05 Nov 2031 15:14:37.010      10259.117829    
05 Nov 2031 15:55:07.292    05 Nov 2031 18:46:03.500      10256.207315    
06 Nov 2031 11:17:27.100    06 Nov 2031 12:23:15.566      3948.4665825    
06 Nov 2031 13:04:01.332    06 Nov 2031 15:54:42.461      10241.129204    
06 Nov 2031 16:35:31.640    06 Nov 2031 18:52:40.428      8228.7879670    
07 Nov 2031 11:14:24.378    07 Nov 2031 13:03:23.200      6538.8223704    
07 Nov 2031 13:44:29.033    07 Nov 2031 16:34:49.086      10220.053212    
07 Nov 2031 17:15:56.224    07 Nov 2031 18:49:36.375      5620.1510508    
08 Nov 2031 11:11:22.397    08 Nov 2031 13:43:23.860      9121.4629015    
08 Nov 2031 14:24:40.595    08 Nov 2031 17:14:49.995      10209.399797    
08 Nov 2031 17:56:08.818    08 Nov 2031 18:46:31.758      3022.9393668    
09 Nov 2031 11:33:25.071    09 Nov 2031 14:23:24.391      10199.320209    
09 Nov 2031 15:04:51.685    09 Nov 2031 17:54:49.903      10198.218364    
09 Nov 2031 18:36:18.684    09 Nov 2031 18:43:24.829      426.14545624    
10 Nov 2031 11:05:14.128    10 Nov 2031 11:32:01.325      1607.1975218    
10 Nov 2031 12:13:44.095    10 Nov 2031 15:03:28.112      10184.017149    
10 Nov 2031 15:45:14.098    10 Nov 2031 18:34:54.815      10180.716224    
11 Nov 2031 11:02:10.020    11 Nov 2031 12:12:05.871      4195.8515619    
11 Nov 2031 12:54:05.715    11 Nov 2031 15:43:31.983      10166.268132    
11 Nov 2031 16:25:34.153    11 Nov 2031 18:37:12.528      7898.3752387    
12 Nov 2031 10:59:08.622    12 Nov 2031 12:52:11.695      6783.0728970    
12 Nov 2031 13:34:31.637    12 Nov 2031 16:23:38.154      10146.516904    
12 Nov 2031 17:06:00.395    12 Nov 2031 18:34:10.688      5290.2938270    
13 Nov 2031 10:56:07.699    13 Nov 2031 13:32:14.797      9367.0980784    
13 Nov 2031 14:14:49.005    13 Nov 2031 17:03:41.252      10132.247349    
13 Nov 2031 17:46:18.215    13 Nov 2031 18:31:07.917      2689.7019544    
14 Nov 2031 11:23:43.162    14 Nov 2031 14:12:19.781      10116.618826    
14 Nov 2031 14:55:10.182    14 Nov 2031 17:43:45.389      10115.207243    
14 Nov 2031 18:26:36.510    14 Nov 2031 18:28:02.894      86.384378560    
15 Nov 2031 10:50:01.439    15 Nov 2031 11:20:52.356      1850.9168414    
15 Nov 2031 12:03:47.460    15 Nov 2031 14:52:18.024      10110.563580    
15 Nov 2031 15:35:14.540    15 Nov 2031 18:23:43.771      10109.230831    
16 Nov 2031 10:46:58.573    16 Nov 2031 12:00:51.121      4432.5481400    
16 Nov 2031 12:43:53.473    16 Nov 2031 15:32:16.226      10102.752295    
16 Nov 2031 16:15:19.128    16 Nov 2031 18:21:55.003      7595.8749834    
17 Nov 2031 10:43:58.272    17 Nov 2031 12:40:50.904      7012.6312827    
17 Nov 2031 13:24:05.906    17 Nov 2031 16:12:17.389      10091.482955    
17 Nov 2031 16:55:35.302    17 Nov 2031 18:18:55.201      4999.8989930    
18 Nov 2031 10:40:58.200    18 Nov 2031 13:20:54.210      9596.0096926    
18 Nov 2031 14:04:25.186    18 Nov 2031 16:52:20.211      10075.024772    
18 Nov 2031 17:35:53.423    18 Nov 2031 18:15:54.133      2400.7106155    
19 Nov 2031 11:13:21.798    19 Nov 2031 14:00:59.726      10057.927685    
19 Nov 2031 14:44:51.572    19 Nov 2031 17:32:26.320      10054.747557    
20 Nov 2031 10:34:53.560    20 Nov 2031 11:09:37.712      2084.1521969    
20 Nov 2031 11:53:44.023    20 Nov 2031 14:41:04.182      10040.159784    
20 Nov 2031 15:25:13.450    20 Nov 2031 18:09:47.606      9874.1557391    
21 Nov 2031 10:31:51.720    21 Nov 2031 11:49:45.284      4673.5634944    
21 Nov 2031 12:34:14.133    21 Nov 2031 15:21:11.678      10017.545330    
21 Nov 2031 16:05:42.592    21 Nov 2031 18:06:47.097      7264.5049762    
22 Nov 2031 10:28:52.269    22 Nov 2031 12:29:47.367      7255.0973471    
22 Nov 2031 13:14:28.080    22 Nov 2031 16:01:13.529      10005.448964    
22 Nov 2031 16:45:56.463    22 Nov 2031 18:03:49.140      4672.6767976    
23 Nov 2031 10:25:52.814    23 Nov 2031 13:09:49.928      9837.1142394    
23 Nov 2031 13:54:43.809    23 Nov 2031 16:41:15.583      9991.7741189    
23 Nov 2031 17:26:10.714    23 Nov 2031 18:00:49.633      2078.9193842    
24 Nov 2031 11:03:33.144    24 Nov 2031 13:49:52.789      9979.6452016    
24 Nov 2031 14:35:03.427    24 Nov 2031 17:21:19.652      9976.2258227    
25 Nov 2031 10:19:49.358    25 Nov 2031 10:58:32.610      2323.2514042    
25 Nov 2031 11:44:00.770    25 Nov 2031 14:29:58.876      9958.1059671    
25 Nov 2031 15:15:29.397    25 Nov 2031 17:54:46.614      9557.2174424    
26 Nov 2031 10:16:48.323    26 Nov 2031 11:38:39.086      4910.7632683    
26 Nov 2031 12:24:29.094    26 Nov 2031 15:10:06.024      9936.9303666    
26 Nov 2031 15:55:59.337    26 Nov 2031 17:51:48.098      6948.7616570    
27 Nov 2031 10:13:49.492    27 Nov 2031 12:18:45.017      7495.5243277    
27 Nov 2031 13:04:53.261    27 Nov 2031 15:50:11.522      9918.2607415    
27 Nov 2031 16:36:22.554    27 Nov 2031 17:48:51.825      4349.2711947    
28 Nov 2031 10:13:53.108    28 Nov 2031 12:58:52.536      9899.4276499    
28 Nov 2031 13:45:22.204    28 Nov 2031 16:30:18.954      9896.7499072    
28 Nov 2031 17:16:50.498    28 Nov 2031 17:45:53.758      1743.2604656    
29 Nov 2031 10:54:05.654    29 Nov 2031 13:38:54.286      9888.6319154    
29 Nov 2031 14:25:32.933    29 Nov 2031 17:10:20.265      9887.3320261    
30 Nov 2031 10:04:47.844    30 Nov 2031 10:47:29.944      2562.0995680    
30 Nov 2031 11:34:16.672    30 Nov 2031 14:18:55.462      9878.7905001    
30 Nov 2031 15:05:42.683    30 Nov 2031 17:39:54.021      9251.3377515    
01 Dec 2031 10:01:47.441    01 Dec 2031 11:27:29.494      5142.0531694    
01 Dec 2031 12:14:24.366    01 Dec 2031 14:58:55.833      9871.4672560    
01 Dec 2031 15:45:53.300    01 Dec 2031 17:36:57.356      6664.0564037    
02 Dec 2031 09:58:49.047    02 Dec 2031 12:07:33.527      7724.4803995    
02 Dec 2031 12:54:43.863    02 Dec 2031 15:38:59.461      9855.5981131    
02 Dec 2031 16:26:11.368    02 Dec 2031 17:34:02.607      4071.2387892    
03 Dec 2031 10:03:34.942    03 Dec 2031 12:47:37.558      9842.6152362    
03 Dec 2031 13:35:04.588    03 Dec 2031 16:19:04.221      9839.6328154    
03 Dec 2031 17:06:34.040    03 Dec 2031 17:31:05.859      1471.8188512    
04 Dec 2031 09:52:49.760    04 Dec 2031 09:56:15.862      206.10183799    
04 Dec 2031 10:43:56.113    04 Dec 2031 13:27:42.057      9825.9433101    
04 Dec 2031 14:15:24.393    04 Dec 2031 16:59:08.383      9823.9904805    
05 Dec 2031 09:49:48.184    05 Dec 2031 10:36:22.210      2794.0257071    
05 Dec 2031 11:24:22.427    05 Dec 2031 14:07:48.919      9806.4919138    
05 Dec 2031 14:55:51.683    05 Dec 2031 17:25:09.186      8957.5028461    
06 Dec 2031 09:46:48.240    06 Dec 2031 11:16:25.562      5377.3225493    
06 Dec 2031 12:04:37.236    06 Dec 2031 14:47:51.582      9794.3454976    
06 Dec 2031 15:36:04.897    06 Dec 2031 17:22:14.238      6369.3410156    
07 Dec 2031 09:43:50.093    07 Dec 2031 11:56:28.634      7958.5409692    
07 Dec 2031 12:44:52.568    07 Dec 2031 15:27:54.474      9781.9057598    
07 Dec 2031 16:16:19.426    07 Dec 2031 17:19:20.868      3781.4421169    
08 Dec 2031 09:53:36.383    08 Dec 2031 12:36:30.280      9773.8968972    
08 Dec 2031 13:25:05.580    08 Dec 2031 16:07:56.911      9771.3311717    
08 Dec 2031 16:56:35.312    08 Dec 2031 17:16:25.330      1190.0184598    
09 Dec 2031 09:37:50.922    09 Dec 2031 09:45:10.527      439.60515994    
09 Dec 2031 10:34:03.600    09 Dec 2031 13:16:36.949      9753.3499187    
09 Dec 2031 14:05:32.282    09 Dec 2031 16:48:03.314      9751.0316999    
10 Dec 2031 09:34:49.519    10 Dec 2031 10:25:16.684      3027.1648016    
10 Dec 2031 11:14:29.472    10 Dec 2031 13:56:43.758      9734.2850798    
10 Dec 2031 14:46:00.176    10 Dec 2031 17:10:31.507      8671.3315546    
11 Dec 2031 09:31:49.857    11 Dec 2031 11:05:24.687      5614.8299521    
11 Dec 2031 11:54:58.417    11 Dec 2031 14:36:51.278      9712.8610610    
11 Dec 2031 15:26:27.609    11 Dec 2031 17:07:38.137      6070.5273785    
12 Dec 2031 09:28:51.777    12 Dec 2031 11:45:33.467      8201.6904016    
12 Dec 2031 12:35:30.520    12 Dec 2031 15:17:00.542      9690.0215412    
12 Dec 2031 16:07:00.671    12 Dec 2031 17:04:45.988      3465.3170141    
13 Dec 2031 09:44:22.686    13 Dec 2031 12:25:39.258      9676.5715645    
13 Dec 2031 13:15:50.446    13 Dec 2031 15:57:05.518      9675.0721340    
13 Dec 2031 16:47:18.442    13 Dec 2031 17:01:51.528      873.08592706    
14 Dec 2031 09:22:52.400    14 Dec 2031 09:34:17.508      685.10713878    
14 Dec 2031 10:24:39.872    14 Dec 2031 13:05:43.661      9663.7886834    
14 Dec 2031 13:56:07.200    14 Dec 2031 16:37:09.647      9662.4471849    
15 Dec 2031 09:19:51.029    15 Dec 2031 10:14:19.141      3268.1122330    
15 Dec 2031 11:04:48.995    15 Dec 2031 13:45:45.447      9656.4518952    
15 Dec 2031 14:36:17.459    15 Dec 2031 16:56:00.268      8382.8085017    
16 Dec 2031 09:16:51.483    16 Dec 2031 10:54:24.881      5853.3985535    
16 Dec 2031 11:45:11.094    16 Dec 2031 14:25:51.157      9640.0632790    
16 Dec 2031 15:16:38.965    16 Dec 2031 16:53:08.284      5789.3181578    
17 Dec 2031 09:13:53.292    17 Dec 2031 11:34:29.444      8436.1516820    
17 Dec 2031 12:25:29.794    17 Dec 2031 15:05:56.230      9626.4355931    
17 Dec 2031 15:56:59.386    17 Dec 2031 16:50:17.155      3197.7685722    
18 Dec 2031 09:34:23.558    18 Dec 2031 12:14:35.643      9612.0851907    
18 Dec 2031 13:05:51.513    18 Dec 2031 15:46:01.956      9610.4432494    
18 Dec 2031 16:37:19.586    18 Dec 2031 16:47:23.593      604.00722411    
19 Dec 2031 09:07:53.371    19 Dec 2031 09:23:15.449      922.07827284    
19 Dec 2031 10:14:46.247    19 Dec 2031 12:54:42.406      9596.1588903    
19 Dec 2031 13:46:16.041    19 Dec 2031 16:26:09.273      9593.2316883    
20 Dec 2031 09:04:51.863    20 Dec 2031 10:03:21.037      3509.1738158    
20 Dec 2031 10:55:04.240    20 Dec 2031 13:34:47.088      9582.8477990    
20 Dec 2031 14:26:31.333    20 Dec 2031 16:41:34.551      8103.2179945    
21 Dec 2031 09:01:52.236    21 Dec 2031 10:43:24.614      6092.3780490    
21 Dec 2031 11:35:17.656    21 Dec 2031 14:14:50.728      9573.0725540    
21 Dec 2031 15:06:44.720    21 Dec 2031 16:38:43.760      5519.0405149    
22 Dec 2031 08:58:53.735    22 Dec 2031 11:23:26.021      8672.2862171    
22 Dec 2031 12:15:24.933    22 Dec 2031 14:54:52.282      9567.3491296    
22 Dec 2031 15:46:53.119    22 Dec 2031 16:35:53.463      2940.3443417    
23 Dec 2031 09:24:18.632    23 Dec 2031 12:03:32.058      9553.4251274    
23 Dec 2031 12:55:47.174    23 Dec 2031 15:34:58.491      9551.3162592    
23 Dec 2031 16:27:15.401    23 Dec 2031 16:33:00.646      345.24536070    
24 Dec 2031 08:52:52.914    24 Dec 2031 09:12:10.927      1158.0129995    
24 Dec 2031 10:04:38.670    24 Dec 2031 12:43:37.815      9539.1448054    
24 Dec 2031 13:36:08.570    24 Dec 2031 16:15:04.822      9536.2517054    
25 Dec 2031 08:49:51.125    25 Dec 2031 09:52:19.479      3748.3546555    
25 Dec 2031 10:45:07.029    25 Dec 2031 13:23:46.142      9519.1124105    
25 Dec 2031 14:16:35.882    25 Dec 2031 16:27:13.529      7837.6469276    
26 Dec 2031 08:46:51.258    26 Dec 2031 10:32:28.034      6336.7758024    
26 Dec 2031 11:25:35.951    26 Dec 2031 14:03:55.393      9499.4422692    
26 Dec 2031 14:57:06.828    26 Dec 2031 16:24:23.755      5236.9264528    
27 Dec 2031 08:43:52.294    27 Dec 2031 11:12:36.852      8924.5580791    
27 Dec 2031 12:06:02.447    27 Dec 2031 14:44:03.358      9480.9108236    
27 Dec 2031 15:37:30.650    27 Dec 2031 16:21:34.113      2643.4631669    
28 Dec 2031 09:14:54.543    28 Dec 2031 11:52:43.432      9468.8895884    
28 Dec 2031 12:46:23.077    28 Dec 2031 15:24:09.978      9466.9015591    
28 Dec 2031 16:17:51.150    28 Dec 2031 16:18:41.886      50.736379274    
29 Dec 2031 08:37:50.323    29 Dec 2031 09:01:21.103      1410.7799484    
29 Dec 2031 09:55:07.636    29 Dec 2031 12:32:47.424      9459.7882591    
29 Dec 2031 13:26:35.562    29 Dec 2031 16:04:13.924      9458.3616996    
30 Dec 2031 08:34:48.145    30 Dec 2031 09:41:28.206      4000.0616280    
30 Dec 2031 10:35:31.000    30 Dec 2031 13:12:54.958      9443.9583146    
30 Dec 2031 14:06:59.786    30 Dec 2031 16:12:56.396      7556.6101649    
31 Dec 2031 08:31:47.903    31 Dec 2031 10:21:34.536      6586.6330206    
31 Dec 2031 11:15:50.930    31 Dec 2031 13:53:01.439      9430.5090111    
31 Dec 2031 14:47:20.496    31 Dec 2031 16:10:07.459      4966.9636915    
01 Jan 2032 08:28:48.340    01 Jan 2032 11:01:43.127      9174.7871313    
01 Jan 2032 11:56:16.823    01 Jan 2032 14:33:09.755      9412.9324688    
01 Jan 2032 15:27:45.165    01 Jan 2032 16:07:18.302      2373.1371035    
02 Jan 2032 09:05:10.553    02 Jan 2032 11:41:50.896      9400.3435321    
02 Jan 2032 12:36:40.681    02 Jan 2032 15:13:18.107      9397.4261143    
03 Jan 2032 08:22:44.968    03 Jan 2032 08:50:32.450      1667.4813523    
03 Jan 2032 09:45:34.808    03 Jan 2032 12:21:58.854      9384.0451670    
03 Jan 2032 13:17:02.241    03 Jan 2032 15:53:25.203      9382.9622714    
04 Jan 2032 08:19:42.289    04 Jan 2032 09:30:37.646      4255.3569460    
04 Jan 2032 10:25:48.979    04 Jan 2032 13:02:04.147      9375.1679143    
04 Jan 2032 13:57:16.681    04 Jan 2032 15:58:42.380      7285.6989545    
05 Jan 2032 08:16:41.530    05 Jan 2032 10:10:40.726      6839.1957431    
05 Jan 2032 11:05:56.069    05 Jan 2032 13:42:06.805      9370.7356435    
05 Jan 2032 14:37:22.956    05 Jan 2032 15:55:54.111      4711.1548981    
06 Jan 2032 08:14:44.445    06 Jan 2032 10:50:46.264      9361.8195634    
06 Jan 2032 11:46:12.916    06 Jan 2032 14:22:12.871      9359.9546029    
06 Jan 2032 15:17:41.046    06 Jan 2032 15:53:05.273      2124.2265954    
07 Jan 2032 08:54:59.961    07 Jan 2032 11:30:51.675      9351.7140785    
07 Jan 2032 12:26:28.534    07 Jan 2032 15:02:18.461      9349.9270358    
08 Jan 2032 08:07:36.210    08 Jan 2032 08:39:33.281      1917.0713094    
08 Jan 2032 09:35:24.051    08 Jan 2032 12:11:00.051      9336.0002041    
08 Jan 2032 13:06:52.592    08 Jan 2032 15:42:26.736      9334.1444501    
09 Jan 2032 08:04:32.924    09 Jan 2032 09:19:41.065      4508.1414039    
09 Jan 2032 10:15:46.531    09 Jan 2032 12:51:08.359      9321.8277270    
09 Jan 2032 13:47:16.876    09 Jan 2032 15:44:30.697      7033.8216488    
10 Jan 2032 08:01:31.515    10 Jan 2032 09:59:51.397      7099.8822232    
10 Jan 2032 10:56:14.637    10 Jan 2032 13:31:18.115      9303.4775832    
10 Jan 2032 14:27:42.850    10 Jan 2032 15:41:42.899      4440.0488135    
11 Jan 2032 08:05:05.568    11 Jan 2032 10:39:58.876      9293.3086357    
11 Jan 2032 11:36:34.472    11 Jan 2032 14:11:25.760      9291.2878284    
11 Jan 2032 15:08:03.154    11 Jan 2032 15:38:54.182      1851.0280081    
12 Jan 2032 08:45:21.221    12 Jan 2032 11:20:04.772      9283.5515088    
12 Jan 2032 12:16:48.525    12 Jan 2032 14:51:31.211      9282.6855598    
13 Jan 2032 07:52:23.459    13 Jan 2032 08:28:45.719      2182.2602024    
13 Jan 2032 09:25:41.629    13 Jan 2032 12:00:12.803      9271.1741657    
13 Jan 2032 12:57:10.974    13 Jan 2032 15:31:39.801      9268.8263391    
14 Jan 2032 07:49:19.463    14 Jan 2032 09:08:53.787      4774.3241661    
14 Jan 2032 10:06:02.738    14 Jan 2032 12:40:20.720      9257.9823670    
14 Jan 2032 13:37:31.868    14 Jan 2032 15:30:20.367      6768.4992088    
15 Jan 2032 07:46:17.264    15 Jan 2032 09:49:04.066      7366.8027831    
15 Jan 2032 10:46:30.618    15 Jan 2032 13:20:31.122      9240.5035924    
15 Jan 2032 14:17:59.660    15 Jan 2032 15:27:32.795      4173.1350367    
16 Jan 2032 07:55:24.873    16 Jan 2032 10:29:13.348      9228.4748940    
16 Jan 2032 11:26:54.932    16 Jan 2032 14:00:40.774      9225.8426273    
16 Jan 2032 14:58:25.317    16 Jan 2032 15:24:43.970      1578.6528661    
17 Jan 2032 08:35:55.044    17 Jan 2032 11:09:24.695      9209.6510780    
17 Jan 2032 12:07:23.575    17 Jan 2032 14:40:51.528      9207.9528392    
18 Jan 2032 07:37:06.048    18 Jan 2032 08:18:05.567      2459.5187531    
18 Jan 2032 09:16:13.102    18 Jan 2032 11:49:32.488      9199.3854257    
18 Jan 2032 12:47:41.619    18 Jan 2032 15:19:00.356      9078.7369086    
19 Jan 2032 07:34:01.210    19 Jan 2032 08:58:11.864      5050.6548790    
19 Jan 2032 09:56:25.549    19 Jan 2032 12:29:38.096      9192.5472442    
19 Jan 2032 13:27:52.101    19 Jan 2032 15:16:10.326      6498.2258910    
20 Jan 2032 07:30:58.062    20 Jan 2032 09:38:17.907      7639.8451728    
20 Jan 2032 10:36:39.578    20 Jan 2032 13:09:44.799      9185.2216987    
20 Jan 2032 14:08:08.020    20 Jan 2032 15:13:22.761      3914.7410550    
21 Jan 2032 07:45:26.475    21 Jan 2032 10:18:24.571      9178.0959320    
21 Jan 2032 11:16:54.165    21 Jan 2032 13:49:51.250      9177.0849224    
21 Jan 2032 14:48:22.225    21 Jan 2032 15:10:33.624      1331.3986846    
22 Jan 2032 07:24:49.791    22 Jan 2032 07:27:06.259      136.46784131    
22 Jan 2032 08:25:46.688    22 Jan 2032 10:58:33.249      9166.5605289    
22 Jan 2032 11:57:15.288    22 Jan 2032 14:30:00.129      9164.8410923    
23 Jan 2032 07:21:43.332    23 Jan 2032 08:07:14.158      2730.8260649    
23 Jan 2032 09:06:04.786    23 Jan 2032 11:38:41.270      9156.4831218    
23 Jan 2032 12:37:34.060    23 Jan 2032 15:04:49.610      8835.5499488    
24 Jan 2032 07:18:37.567    24 Jan 2032 08:47:25.147      5327.5805100    
24 Jan 2032 09:46:31.467    24 Jan 2032 12:18:52.129      9140.6613703    
24 Jan 2032 13:17:59.834    24 Jan 2032 15:01:59.609      6239.7753133    
25 Jan 2032 07:15:33.364    25 Jan 2032 09:27:33.183      7919.8189635    
25 Jan 2032 10:26:48.797    25 Jan 2032 12:59:00.183      9131.3860133    
25 Jan 2032 13:58:17.385    25 Jan 2032 14:59:11.830      3654.4453725    
26 Jan 2032 07:35:36.284    26 Jan 2032 10:07:40.494      9124.2101231    
26 Jan 2032 11:07:03.121    26 Jan 2032 13:39:06.895      9123.7732541    
26 Jan 2032 14:38:29.995    26 Jan 2032 14:56:22.178      1072.1821987    
27 Jan 2032 07:09:22.527    27 Jan 2032 07:16:20.655      418.12818430    
27 Jan 2032 08:15:50.474    27 Jan 2032 10:47:47.792      9117.3182033    
27 Jan 2032 11:47:19.546    27 Jan 2032 14:19:14.935      9115.3891125    
28 Jan 2032 07:06:14.862    28 Jan 2032 07:56:29.610      3014.7476465    
28 Jan 2032 08:56:10.340    28 Jan 2032 11:27:56.475      9106.1344290    
28 Jan 2032 12:27:38.656    28 Jan 2032 14:50:37.413      8578.7576904    
29 Jan 2032 07:03:08.091    29 Jan 2032 08:36:40.030      5611.9391404    
29 Jan 2032 09:36:35.273    29 Jan 2032 12:08:07.384      9092.1106964    
29 Jan 2032 13:08:04.706    29 Jan 2032 14:47:47.265      5982.5584569    
30 Jan 2032 07:00:02.723    30 Jan 2032 09:16:50.410      8207.6865425    
30 Jan 2032 10:16:58.783    30 Jan 2032 12:48:17.833      9079.0499866    
30 Jan 2032 13:48:28.682    30 Jan 2032 14:44:59.061      3390.3790418    
31 Jan 2032 07:26:00.856    31 Jan 2032 09:57:03.792      9062.9353882    
31 Jan 2032 10:57:30.489    31 Jan 2032 13:28:31.144      9060.6548659    
31 Jan 2032 14:28:59.647    31 Jan 2032 14:42:08.705      789.05800888    
01 Feb 2032 06:53:49.121    01 Feb 2032 07:05:46.842      717.72048909    
01 Feb 2032 08:06:23.157    01 Feb 2032 10:37:14.071      9050.9141724    
01 Feb 2032 11:37:52.159    01 Feb 2032 14:08:41.334      9049.1751587    
02 Feb 2032 06:50:40.178    02 Feb 2032 07:45:56.486      3316.3077081    
02 Feb 2032 08:46:42.149    02 Feb 2032 11:17:23.112      9040.9629855    
02 Feb 2032 12:18:09.201    02 Feb 2032 14:36:22.862      8293.6615407    
03 Feb 2032 06:47:32.315    03 Feb 2032 08:26:03.793      5911.4784745    
03 Feb 2032 09:26:55.840    03 Feb 2032 11:57:30.955      9035.1151577    
03 Feb 2032 12:58:24.636    03 Feb 2032 14:33:32.393      5707.7576359    
04 Feb 2032 06:44:25.672    04 Feb 2032 09:06:12.782      8507.1098775    
04 Feb 2032 10:07:13.314    04 Feb 2032 12:37:39.569      9026.2555743    
04 Feb 2032 13:38:41.039    04 Feb 2032 14:30:43.548      3122.5097324    
05 Feb 2032 07:16:04.346    05 Feb 2032 09:46:22.340      9017.9940155    
05 Feb 2032 10:47:33.325    05 Feb 2032 13:17:49.558      9016.2326202    
05 Feb 2032 14:19:02.050    05 Feb 2032 14:27:52.291      530.24036475    
06 Feb 2032 06:38:09.116    06 Feb 2032 06:55:04.487      1015.3718601    
06 Feb 2032 07:56:22.670    06 Feb 2032 10:26:31.534      9008.8642578    
06 Feb 2032 11:27:51.147    06 Feb 2032 13:57:58.721      9007.5743898    
07 Feb 2032 06:34:58.835    07 Feb 2032 07:35:16.144      3617.3088647    
07 Feb 2032 08:36:47.869    07 Feb 2032 11:06:43.501      8995.6321014    
07 Feb 2032 12:08:16.792    07 Feb 2032 14:22:04.998      8028.2065300    
08 Feb 2032 06:31:49.800    08 Feb 2032 08:15:25.609      6215.8091148    
08 Feb 2032 09:17:05.237    08 Feb 2032 11:46:52.672      8987.4351508    
08 Feb 2032 12:48:33.534    08 Feb 2032 14:19:13.998      5440.4637409    
09 Feb 2032 06:28:41.780    09 Feb 2032 08:55:34.444      8812.6636090    
09 Feb 2032 09:57:20.465    09 Feb 2032 12:27:00.988      8980.5223922    
09 Feb 2032 13:28:47.091    09 Feb 2032 14:16:24.252      2857.1604022    
10 Feb 2032 07:06:02.648    10 Feb 2032 09:35:41.076      8978.4280149    
10 Feb 2032 10:37:30.890    10 Feb 2032 13:07:08.176      8977.2855491    
10 Feb 2032 14:08:59.337    10 Feb 2032 14:13:31.849      272.51244513    
11 Feb 2032 06:22:22.085    11 Feb 2032 06:44:23.282      1321.1970388    
11 Feb 2032 07:46:19.721    11 Feb 2032 10:15:50.099      8970.3774764    
11 Feb 2032 11:17:47.272    11 Feb 2032 13:47:16.926      8969.6536270    
12 Feb 2032 06:19:10.400    12 Feb 2032 07:24:32.764      3922.3648004    
12 Feb 2032 08:26:38.375    12 Feb 2032 10:56:00.187      8961.8119852    
12 Feb 2032 11:58:07.581    12 Feb 2032 14:07:42.656      7775.0752053    
13 Feb 2032 06:16:00.085    13 Feb 2032 08:04:43.516      6523.4304006    
13 Feb 2032 09:06:59.213    13 Feb 2032 11:36:10.764      8951.5509811    
13 Feb 2032 12:38:28.068    13 Feb 2032 14:04:50.882      5182.8132418    
14 Feb 2032 06:15:57.978    14 Feb 2032 08:44:56.948      8938.9705770    
14 Feb 2032 09:47:28.061    14 Feb 2032 12:16:24.655      8936.5935801    
14 Feb 2032 13:18:57.781    14 Feb 2032 14:01:59.957      2582.1755322    
15 Feb 2032 06:56:22.248    15 Feb 2032 09:25:08.946      8926.6987227    
15 Feb 2032 10:27:51.144    15 Feb 2032 12:56:36.362      8925.2187003    
16 Feb 2032 06:06:27.477    16 Feb 2032 06:33:53.384      1645.9068949    
16 Feb 2032 07:36:44.559    16 Feb 2032 10:05:20.448      8915.8897998    
16 Feb 2032 11:08:12.351    16 Feb 2032 13:36:47.370      8915.0191309    
17 Feb 2032 06:03:14.306    17 Feb 2032 07:14:02.004      4247.6980645    
17 Feb 2032 08:16:58.378    17 Feb 2032 10:45:29.268      8910.8904789    
17 Feb 2032 11:48:27.076    17 Feb 2032 13:53:14.666      7487.5895959    
18 Feb 2032 06:00:02.604    18 Feb 2032 07:54:13.035      6850.4315206    
18 Feb 2032 08:57:18.599    18 Feb 2032 11:25:40.066      8901.4672927    
18 Feb 2032 12:28:46.453    18 Feb 2032 13:50:21.895      4895.4422729    
19 Feb 2032 06:06:08.792    19 Feb 2032 08:34:23.553      8894.7601116    
19 Feb 2032 09:37:38.013    19 Feb 2032 12:05:51.076      8893.0628560    
19 Feb 2032 13:09:07.209    19 Feb 2032 13:47:29.534      2302.3251240    
20 Feb 2032 06:46:29.865    20 Feb 2032 09:14:34.791      8884.9257403    
20 Feb 2032 10:17:58.080    20 Feb 2032 12:46:02.013      8883.9330386    
21 Feb 2032 05:50:24.832    21 Feb 2032 06:23:20.078      1975.2467004    
21 Feb 2032 07:26:54.117    21 Feb 2032 09:54:47.837      8873.7202419    
21 Feb 2032 10:58:23.765    21 Feb 2032 13:26:15.492      8871.7272332    
22 Feb 2032 05:47:10.143    22 Feb 2032 07:03:32.037      4581.8937599    
22 Feb 2032 08:07:15.031    22 Feb 2032 10:34:59.250      8864.2184270    
22 Feb 2032 11:38:43.279    22 Feb 2032 13:38:39.934      7196.6552298    
23 Feb 2032 05:43:56.976    23 Feb 2032 07:43:42.849      7185.8726063    
23 Feb 2032 08:47:32.901    23 Feb 2032 11:15:09.774      8856.8735306    
23 Feb 2032 12:19:00.082    23 Feb 2032 13:35:45.944      4605.8613772    
24 Feb 2032 05:56:13.979    24 Feb 2032 08:23:50.134      8856.1553440    
24 Feb 2032 09:27:41.452    24 Feb 2032 11:55:17.155      8855.7034127    
24 Feb 2032 12:59:09.276    24 Feb 2032 13:32:51.895      2022.6182663    
25 Feb 2032 06:36:29.062    25 Feb 2032 09:03:59.732      8850.6704650    
25 Feb 2032 10:07:56.379    25 Feb 2032 12:35:26.579      8850.1998649    
26 Feb 2032 05:34:13.814    26 Feb 2032 06:12:41.594      2307.7794792    
26 Feb 2032 07:16:42.359    26 Feb 2032 09:44:08.931      8846.5717018    
26 Feb 2032 10:48:10.962    26 Feb 2032 13:15:36.312      8845.3500270    
27 Feb 2032 05:30:57.572    27 Feb 2032 06:52:52.438      4914.8658562    
27 Feb 2032 07:57:00.335    27 Feb 2032 10:24:19.519      8839.1832731    
27 Feb 2032 11:28:28.196    27 Feb 2032 13:23:57.420      6929.2247697    
28 Feb 2032 05:27:42.849    28 Feb 2032 07:33:04.595      7521.7462912    
28 Feb 2032 08:37:22.745    28 Feb 2032 11:04:32.415      8829.6697686    
28 Feb 2032 12:08:52.420    28 Feb 2032 13:21:01.994      4329.5744008    
29 Feb 2032 05:46:16.660    29 Feb 2032 08:13:17.427      8820.7675362    
29 Feb 2032 09:17:45.070    29 Feb 2032 11:44:44.800      8819.7298262    
29 Feb 2032 12:49:13.621    29 Feb 2032 13:18:06.016      1732.3949385    
01 Mar 2032 05:21:12.005    01 Mar 2032 05:22:02.396      50.391170173    
01 Mar 2032 06:26:37.908    01 Mar 2032 08:53:29.771      8811.8627860    
01 Mar 2032 09:58:06.180    01 Mar 2032 12:24:56.990      8810.8093662    
02 Mar 2032 05:17:54.055    02 Mar 2032 06:02:11.873      2657.8183068    
02 Mar 2032 07:06:51.036    02 Mar 2032 09:33:39.018      8807.9827609    
02 Mar 2032 10:38:19.048    02 Mar 2032 13:05:06.302      8807.2544877    
03 Mar 2032 05:14:36.219    03 Mar 2032 06:42:23.494      5267.2746682    
03 Mar 2032 07:47:10.526    03 Mar 2032 10:13:50.746      8800.2205048    
03 Mar 2032 11:18:38.549    03 Mar 2032 13:09:06.117      6627.5680669    
04 Mar 2032 05:11:19.847    04 Mar 2032 07:22:34.347      7874.4996804    
04 Mar 2032 08:27:28.019    04 Mar 2032 10:54:01.953      8793.9343282    
04 Mar 2032 11:58:57.142    04 Mar 2032 13:06:09.017      4031.8749506    
05 Mar 2032 05:36:21.484    05 Mar 2032 08:02:47.141      8785.6572213    
05 Mar 2032 09:07:49.732    05 Mar 2032 11:34:14.455      8784.7226879    
05 Mar 2032 12:39:17.986    05 Mar 2032 13:03:10.849      1432.8624780    
06 Mar 2032 05:04:45.087    06 Mar 2032 05:11:32.613      407.52544748    
06 Mar 2032 06:16:43.983    06 Mar 2032 08:43:00.607      8776.6232618    
06 Mar 2032 09:48:13.980    06 Mar 2032 12:14:28.602      8774.6220876    
07 Mar 2032 05:01:25.205    07 Mar 2032 05:51:47.114      3021.9090032    
07 Mar 2032 06:57:09.182    07 Mar 2032 09:23:14.562      8765.3797469    
07 Mar 2032 10:28:37.644    07 Mar 2032 12:54:42.022      8764.3779877    
08 Mar 2032 04:58:05.737    08 Mar 2032 06:31:59.911      5634.1743993    
08 Mar 2032 07:37:30.112    08 Mar 2032 10:03:27.330      8757.2188257    
08 Mar 2032 11:08:58.285    08 Mar 2032 12:54:04.875      6306.5898730    
09 Mar 2032 04:54:47.618    09 Mar 2032 07:12:09.265      8241.6469969    
09 Mar 2032 08:17:41.338    09 Mar 2032 10:43:36.279      8754.9405546    
09 Mar 2032 11:49:08.785    09 Mar 2032 12:51:05.809      3717.0241394    
10 Mar 2032 05:26:28.961    10 Mar 2032 07:52:19.853      8750.8925593    
10 Mar 2032 08:57:56.645    10 Mar 2032 11:23:46.940      8750.2955952    
10 Mar 2032 12:29:24.039    10 Mar 2032 12:48:05.147      1121.1086533    
11 Mar 2032 04:48:08.740    11 Mar 2032 05:01:01.945      773.20539232    
11 Mar 2032 06:06:40.753    11 Mar 2032 08:32:29.190      8748.4363736    
11 Mar 2032 09:38:08.795    11 Mar 2032 12:03:56.537      8747.7424230    
12 Mar 2032 04:44:46.862    12 Mar 2032 05:41:13.228      3386.3655300    
12 Mar 2032 06:46:57.552    12 Mar 2032 09:12:40.332      8742.7802674    
12 Mar 2032 10:18:25.027    12 Mar 2032 12:41:55.920      8610.8934218    
13 Mar 2032 04:41:25.682    13 Mar 2032 06:21:24.259      5998.5770012    
13 Mar 2032 07:27:14.324    13 Mar 2032 09:52:52.029      8737.7050963    
13 Mar 2032 10:58:43.597    13 Mar 2032 12:38:52.393      6008.7964011    
14 Mar 2032 04:38:05.678    14 Mar 2032 07:01:37.653      8611.9743535    
14 Mar 2032 08:07:35.733    14 Mar 2032 10:33:04.978      8729.2452284    
14 Mar 2032 11:39:03.766    14 Mar 2032 12:35:51.062      3407.2952785    
15 Mar 2032 05:16:26.020    15 Mar 2032 07:41:49.874      8723.8541040    
15 Mar 2032 08:47:54.439    15 Mar 2032 11:13:17.294      8722.8559010    
15 Mar 2032 12:19:22.537    15 Mar 2032 12:32:47.622      805.08466205    
16 Mar 2032 04:31:22.441    16 Mar 2032 04:50:32.469      1150.0280234    
16 Mar 2032 05:56:38.449    16 Mar 2032 08:21:59.401      8720.9525557    
16 Mar 2032 09:28:05.557    16 Mar 2032 11:53:26.437      8720.8800951    
17 Mar 2032 04:27:58.515    17 Mar 2032 05:30:43.203      3764.6878110    
17 Mar 2032 06:36:53.764    17 Mar 2032 09:02:10.550      8716.7869765    
17 Mar 2032 10:08:21.739    17 Mar 2032 12:26:33.192      8291.4528447    
18 Mar 2032 04:24:35.557    18 Mar 2032 06:10:53.620      6378.0625359    
18 Mar 2032 07:17:07.814    18 Mar 2032 09:42:21.033      8713.2187186    
18 Mar 2032 10:48:36.191    18 Mar 2032 12:23:27.456      5691.2654200    
19 Mar 2032 04:25:59.681    19 Mar 2032 06:51:06.467      8706.7868308    
19 Mar 2032 07:57:27.899    19 Mar 2032 10:22:33.833      8705.9345604    
19 Mar 2032 11:28:55.932    19 Mar 2032 12:20:23.563      3087.6308964    
20 Mar 2032 05:06:18.551    20 Mar 2032 07:31:19.206      8700.6547007    
20 Mar 2032 08:37:48.130    20 Mar 2032 11:02:47.231      8699.1010787    
20 Mar 2032 12:09:17.923    20 Mar 2032 12:17:17.077      479.15342913    
21 Mar 2032 04:14:25.810    21 Mar 2032 04:40:06.990      1541.1796252    
21 Mar 2032 05:46:45.101    21 Mar 2032 08:11:34.651      8689.5498600    
21 Mar 2032 09:18:13.780    21 Mar 2032 11:43:02.259      8688.4790105    
22 Mar 2032 04:10:59.827    22 Mar 2032 05:20:20.920      4161.0932317    
22 Mar 2032 06:27:07.164    22 Mar 2032 08:51:48.704      8681.5402393    
22 Mar 2032 09:58:36.093    22 Mar 2032 12:10:57.050      7940.9570555    
23 Mar 2032 04:07:35.035    23 Mar 2032 06:00:32.664      6777.6293871    
23 Mar 2032 07:07:22.627    23 Mar 2032 09:31:59.731      8677.1042519    
23 Mar 2032 10:38:49.910    23 Mar 2032 12:07:48.915      5339.0045069    
24 Mar 2032 04:16:10.138    24 Mar 2032 06:40:44.009      8673.8711467    
24 Mar 2032 07:47:38.341    24 Mar 2032 10:12:11.411      8673.0698655    
24 Mar 2032 11:19:06.296    24 Mar 2032 12:04:42.166      2735.8703678    
25 Mar 2032 04:56:23.429    25 Mar 2032 07:20:54.376      8670.9471433    
25 Mar 2032 08:27:51.097    25 Mar 2032 10:52:21.684      8670.5864784    
25 Mar 2032 11:59:19.051    25 Mar 2032 12:01:32.391      133.34001491    
26 Mar 2032 03:57:18.520    26 Mar 2032 04:29:39.069      1940.5487702    
26 Mar 2032 05:36:40.282    26 Mar 2032 08:01:06.384      8666.1017587    
26 Mar 2032 09:08:08.000    26 Mar 2032 11:32:33.593      8665.5923437    
27 Mar 2032 03:53:50.465    27 Mar 2032 05:09:49.933      4559.4681341    
27 Mar 2032 06:16:54.557    27 Mar 2032 08:41:17.583      8663.0256463    
27 Mar 2032 09:48:23.337    27 Mar 2032 11:55:06.429      7603.0916254    
28 Mar 2032 03:50:23.760    28 Mar 2032 05:50:03.975      7180.2148996    
28 Mar 2032 06:57:16.072    28 Mar 2032 09:21:31.406      8655.3339120    
28 Mar 2032 10:28:44.061    28 Mar 2032 11:51:55.707      4991.6460001    
29 Mar 2032 04:06:04.718    29 Mar 2032 06:30:16.204      8651.4868862    
29 Mar 2032 07:37:33.146    29 Mar 2032 10:01:43.769      8650.6236887    
29 Mar 2032 11:09:01.447    29 Mar 2032 11:48:45.811      2384.3638531    
30 Mar 2032 04:46:18.073    30 Mar 2032 07:10:26.571      8648.4975291    
30 Mar 2032 08:17:44.656    30 Mar 2032 10:41:53.417      8648.7609574    
31 Mar 2032 03:40:00.210    31 Mar 2032 04:19:09.175      2348.9650911    
31 Mar 2032 05:26:28.710    31 Mar 2032 07:50:36.506      8647.7954691    
31 Mar 2032 08:57:56.479    31 Mar 2032 11:22:03.771      8647.2920507    
01 Apr 2032 03:36:30.077    01 Apr 2032 04:59:18.978      4968.9011451    
01 Apr 2032 06:06:39.579    01 Apr 2032 08:30:46.063      8646.4847521    
01 Apr 2032 09:38:06.929    01 Apr 2032 11:39:00.276      7253.3473811    
02 Apr 2032 03:33:01.373    02 Apr 2032 05:39:30.481      7589.1073646    
02 Apr 2032 06:46:55.203    02 Apr 2032 09:10:57.822      8642.6191940    
02 Apr 2032 10:18:22.951    02 Apr 2032 11:35:46.744      4643.7936379    
03 Apr 2032 03:55:41.341    03 Apr 2032 06:19:41.620      8640.2785477    
03 Apr 2032 07:27:09.844    03 Apr 2032 09:51:09.335      8639.4915687    
03 Apr 2032 10:58:38.738    03 Apr 2032 11:32:33.366      2034.6274944    
04 Apr 2032 03:26:02.648    04 Apr 2032 03:28:28.943      146.29515926    
04 Apr 2032 04:36:04.837    04 Apr 2032 06:59:56.694      8631.8562840    
04 Apr 2032 08:07:33.515    04 Apr 2032 10:31:24.343      8630.8272970    
05 Apr 2032 03:22:30.538    05 Apr 2032 04:08:42.688      2772.1496093    
05 Apr 2032 05:16:25.118    05 Apr 2032 07:40:10.535      8625.4174120    
05 Apr 2032 08:47:54.111    05 Apr 2032 11:11:38.373      8624.2625425    
06 Apr 2032 03:18:58.313    06 Apr 2032 04:48:55.848      5397.5357393    
06 Apr 2032 05:56:43.040    06 Apr 2032 08:20:22.967      8619.9265829    
06 Apr 2032 09:28:10.224    06 Apr 2032 11:22:37.371      6867.1464860    
07 Apr 2032 03:15:27.497    07 Apr 2032 05:29:06.986      8019.4885748    
07 Apr 2032 06:36:57.249    07 Apr 2032 09:00:34.550      8617.3011867    
07 Apr 2032 10:08:25.509    07 Apr 2032 11:19:20.747      4255.2380401    
08 Apr 2032 03:45:43.724    08 Apr 2032 06:09:18.285      8614.5612485    
08 Apr 2032 07:17:11.111    08 Apr 2032 09:40:45.508      8614.3969578    
08 Apr 2032 10:48:38.695    08 Apr 2032 11:16:03.524      1644.8286777    
09 Apr 2032 03:08:23.706    09 Apr 2032 03:18:03.036      579.33009986    
09 Apr 2032 04:25:59.813    09 Apr 2032 06:49:30.569      8610.7558094    
09 Apr 2032 07:57:27.935    09 Apr 2032 10:20:57.995      8610.0594159    
10 Apr 2032 03:04:49.048    10 Apr 2032 03:58:14.332      3205.2833958    
10 Apr 2032 05:06:13.831    10 Apr 2032 07:29:41.815      8607.9838822    
10 Apr 2032 08:37:42.074    10 Apr 2032 11:01:09.455      8607.3807768    
11 Apr 2032 03:01:14.678    11 Apr 2032 04:38:28.685      5834.0079205    
11 Apr 2032 05:46:35.387    11 Apr 2032 08:09:56.348      8600.9606830    
11 Apr 2032 09:18:03.759    11 Apr 2032 11:05:56.438      6472.6789930    
12 Apr 2032 02:57:41.605    12 Apr 2032 05:18:41.467      8459.8625051    
12 Apr 2032 06:26:52.688    12 Apr 2032 08:50:09.128      8596.4393291    
12 Apr 2032 09:58:21.159    12 Apr 2032 11:02:36.437      3855.2779019    
13 Apr 2032 03:35:40.256    13 Apr 2032 05:58:53.333      8593.0764966    
13 Apr 2032 07:07:06.998    13 Apr 2032 09:30:20.217      8593.2189998    
13 Apr 2032 10:38:33.553    13 Apr 2032 10:59:15.037      1241.4841929    
14 Apr 2032 02:50:32.492    14 Apr 2032 03:07:35.238      1022.7456219    
14 Apr 2032 04:15:48.528    14 Apr 2032 06:39:02.508      8593.9801454    
14 Apr 2032 07:47:16.097    14 Apr 2032 10:10:29.783      8593.6867647    
15 Apr 2032 02:46:55.261    15 Apr 2032 03:47:44.962      3649.7011447    
15 Apr 2032 04:55:58.320    15 Apr 2032 07:19:11.818      8593.4976294    
15 Apr 2032 08:27:24.943    15 Apr 2032 10:50:38.725      8593.7820500    
16 Apr 2032 02:43:18.717    16 Apr 2032 04:27:54.773      6276.0559591    
16 Apr 2032 05:36:09.247    16 Apr 2032 07:59:22.053      8592.8058395    
16 Apr 2032 09:07:36.763    16 Apr 2032 10:48:56.339      6079.5766159    
17 Apr 2032 02:44:51.954    17 Apr 2032 05:08:04.406      8592.4520042    
17 Apr 2032 06:16:19.251    17 Apr 2032 08:39:31.651      8592.3991718    
17 Apr 2032 09:47:46.924    17 Apr 2032 10:45:32.662      3465.7387498    
18 Apr 2032 03:25:09.543    18 Apr 2032 05:48:17.579      8588.0353024    
18 Apr 2032 06:56:37.999    18 Apr 2032 09:19:45.171      8587.1715780    
18 Apr 2032 10:28:06.210    18 Apr 2032 10:42:06.784      840.57348082    
19 Apr 2032 02:32:28.660    19 Apr 2032 02:57:02.486      1473.8254518    
19 Apr 2032 04:05:26.297    19 Apr 2032 06:28:30.099      8583.8025823    
19 Apr 2032 07:36:54.703    19 Apr 2032 09:59:57.779      8583.0759719    
20 Apr 2032 02:28:48.865    20 Apr 2032 03:37:15.480      4106.6147421    
20 Apr 2032 04:45:43.557    20 Apr 2032 07:08:42.608      8579.0512791    
20 Apr 2032 08:17:10.628    20 Apr 2032 10:35:05.634      8275.0057553    
21 Apr 2032 02:25:10.110    21 Apr 2032 04:17:25.294      6735.1831446    
21 Apr 2032 05:25:54.047    21 Apr 2032 07:48:52.719      8578.6722195    
21 Apr 2032 08:57:21.993    21 Apr 2032 10:31:36.069      5654.0757316    
22 Apr 2032 02:34:40.034    22 Apr 2032 04:57:36.392      8576.3582553    
22 Apr 2032 06:06:07.086    22 Apr 2032 08:29:03.442      8576.3552196    
22 Apr 2032 09:37:34.156    22 Apr 2032 10:28:08.414      3034.2581133    
23 Apr 2032 03:14:52.900    23 Apr 2032 05:37:47.528      8574.6283613    
23 Apr 2032 06:46:21.040    23 Apr 2032 09:09:15.017      8573.9778694    
23 Apr 2032 10:17:49.035    23 Apr 2032 10:24:37.806      408.77081703    
24 Apr 2032 02:14:11.878    24 Apr 2032 02:46:31.241      1939.3627671    
24 Apr 2032 03:55:06.349    24 Apr 2032 06:17:58.477      8572.1280750    
24 Apr 2032 07:26:33.928    24 Apr 2032 09:49:25.841      8571.9134739    
25 Apr 2032 02:10:29.542    25 Apr 2032 03:26:44.664      4575.1219028    
25 Apr 2032 04:35:25.688    25 Apr 2032 06:58:12.484      8566.7958682    
25 Apr 2032 08:06:54.406    25 Apr 2032 10:17:27.995      7833.5887168    
26 Apr 2032 02:06:48.513    26 Apr 2032 04:06:57.898      7209.3848008    
26 Apr 2032 05:15:43.632    26 Apr 2032 07:38:25.534      8561.9028475    
26 Apr 2032 08:47:12.060    26 Apr 2032 10:13:54.765      5202.7056259    
27 Apr 2032 02:24:33.574    27 Apr 2032 04:47:11.004      8557.4298055    
27 Apr 2032 05:56:00.926    27 Apr 2032 08:18:38.106      8557.1794969    
27 Apr 2032 09:27:27.900    27 Apr 2032 10:10:22.810      2574.9100214    
28 Apr 2032 03:04:42.044    28 Apr 2032 05:27:20.077      8558.0334729    
28 Apr 2032 06:36:09.411    28 Apr 2032 08:58:47.320      8557.9093147    
29 Apr 2032 01:55:41.828    29 Apr 2032 02:36:02.952      2421.1235454    
29 Apr 2032 03:44:52.568    29 Apr 2032 06:07:29.781      8557.2127201    
29 Apr 2032 07:16:19.031    29 Apr 2032 09:38:56.565      8557.5339440    
30 Apr 2032 01:51:56.994    30 Apr 2032 03:16:11.563      5054.5687936    
30 Apr 2032 04:25:00.519    30 Apr 2032 06:47:38.774      8558.2543440    
30 Apr 2032 07:56:27.913    30 Apr 2032 09:59:28.588      7380.6756182    
01 May 2032 01:48:13.613    01 May 2032 03:56:20.507      7686.8933667    
01 May 2032 05:05:08.622    01 May 2032 07:27:47.362      8558.7392696    
01 May 2032 08:36:35.324    01 May 2032 09:55:51.539      4756.2149697    
02 May 2032 02:13:53.871    02 May 2032 04:36:31.320      8557.4496933    
02 May 2032 05:45:22.035    02 May 2032 08:07:58.820      8556.7848338    
02 May 2032 09:16:50.042    02 May 2032 09:52:14.907      2124.8648306    
03 May 2032 01:40:45.365    03 May 2032 01:45:15.192      269.82618305    
03 May 2032 02:54:07.715    03 May 2032 05:16:42.466      8554.7507533    
03 May 2032 06:25:35.337    03 May 2032 08:48:09.821      8554.4841780    
04 May 2032 01:36:58.218    04 May 2032 02:25:26.948      2908.7302197    
04 May 2032 03:34:22.453    04 May 2032 05:56:54.073      8551.6201603    
04 May 2032 07:05:49.498    04 May 2032 09:28:21.028      8551.5300519    
05 May 2032 01:33:10.912    05 May 2032 03:05:35.102      5544.1899674    
05 May 2032 04:14:28.903    05 May 2032 06:37:02.143      8553.2400871    
05 May 2032 07:45:56.032    05 May 2032 09:41:06.470      6910.4381392    
06 May 2032 01:29:25.055    06 May 2032 03:45:44.712      8179.6575637    
06 May 2032 04:54:38.854    06 May 2032 07:17:11.534      8552.6798464    
06 May 2032 08:26:05.359    06 May 2032 09:37:25.396      4280.0369136    
07 May 2032 02:03:19.788    07 May 2032 04:25:53.382      8553.5939841    
07 May 2032 05:34:47.338    07 May 2032 07:57:20.653      8553.3152124    
07 May 2032 09:06:14.936    07 May 2032 09:33:43.716      1648.7803794    
08 May 2032 01:21:50.795    08 May 2032 01:34:36.127      765.33162065    
08 May 2032 02:43:30.635    08 May 2032 05:06:03.033      8552.3976581    
08 May 2032 06:14:57.429    08 May 2032 08:37:29.987      8552.5583297    
09 May 2032 01:18:00.643    09 May 2032 02:14:46.963      3406.3193508    
09 May 2032 03:23:44.467    09 May 2032 05:46:14.668      8550.2011495    
09 May 2032 06:55:13.033    09 May 2032 09:17:42.339      8549.3052048    
10 May 2032 01:14:10.873    10 May 2032 02:54:59.618      6048.7453131    
10 May 2032 04:04:01.384    10 May 2032 06:26:27.050      8545.6653866    
10 May 2032 07:35:29.399    10 May 2032 09:22:20.840      6411.4406100    
11 May 2032 01:12:51.186    11 May 2032 03:35:12.558      8541.3719868    
11 May 2032 04:44:19.075    11 May 2032 07:06:39.862      8540.7865871    
11 May 2032 08:15:46.559    11 May 2032 09:18:35.521      3768.9620171    
12 May 2032 01:53:00.595    12 May 2032 04:15:21.577      8540.9819781    
12 May 2032 05:24:27.608    12 May 2032 07:46:48.658      8541.0503637    
12 May 2032 08:55:54.852    12 May 2032 09:14:48.487      1133.6348351    
13 May 2032 01:02:41.935    13 May 2032 01:24:04.447      1282.5115836    
13 May 2032 02:33:11.414    13 May 2032 04:55:31.355      8539.9405999    
13 May 2032 06:04:38.081    13 May 2032 08:26:58.148      8540.0664479    
14 May 2032 00:58:48.836    14 May 2032 02:04:12.255      3923.4195862    
14 May 2032 03:13:17.837    14 May 2032 05:35:39.328      8541.4909323    
14 May 2032 06:44:45.055    14 May 2032 09:07:03.320      8538.2649672    
15 May 2032 00:54:56.632    15 May 2032 02:44:20.977      6564.3455409    
15 May 2032 03:53:25.982    15 May 2032 06:15:47.630      8541.6480370    
15 May 2032 07:24:52.210    15 May 2032 09:03:11.159      5898.9490991    
16 May 2032 01:02:07.232    16 May 2032 03:24:29.642      8542.4104467    
16 May 2032 04:33:35.065    16 May 2032 06:55:57.013      8541.9474633    
16 May 2032 08:05:02.922    16 May 2032 08:59:21.352      3258.4295173    
17 May 2032 01:42:19.825    17 May 2032 04:04:39.932      8540.1073072    
17 May 2032 05:13:46.904    17 May 2032 07:36:06.987      8540.0834068    
17 May 2032 08:45:14.113    17 May 2032 08:55:28.749      614.63562967    
18 May 2032 00:43:18.654    18 May 2032 01:13:23.198      1804.5443391    
18 May 2032 02:22:32.066    18 May 2032 04:44:50.339      8538.2721934    
18 May 2032 05:53:59.261    18 May 2032 08:16:17.314      8538.0530995    
19 May 2032 00:39:22.715    19 May 2032 01:53:30.334      4447.6195360    
19 May 2032 03:02:36.501    19 May 2032 05:24:56.945      8540.4441101    
19 May 2032 06:34:02.742    19 May 2032 08:47:33.428      8010.6860954    
20 May 2032 00:35:28.085    20 May 2032 02:33:37.848      7089.7631164    
20 May 2032 03:42:42.591    20 May 2032 06:05:04.473      8541.8815702    
20 May 2032 07:14:08.703    20 May 2032 08:43:37.197      5368.4948004    
21 May 2032 00:51:18.681    21 May 2032 03:13:43.726      8545.0445095    
21 May 2032 04:22:45.243    21 May 2032 06:45:10.551      8545.3079812    
21 May 2032 07:54:12.008    21 May 2032 08:39:42.647      2730.6389161    
22 May 2032 01:31:25.149    22 May 2032 03:53:51.166      8546.0168180    
22 May 2032 05:02:51.195    22 May 2032 07:25:17.675      8546.4796939    
22 May 2032 08:34:17.197    22 May 2032 08:35:44.372      87.175201694    
23 May 2032 00:23:40.894    23 May 2032 01:02:31.726      2330.8322132    
23 May 2032 02:11:31.301    23 May 2032 04:33:58.986      8547.6849768    
23 May 2032 05:42:59.076    23 May 2032 08:05:26.310      8547.2338615    
24 May 2032 00:19:42.258    24 May 2032 01:42:42.307      4980.0487480    
24 May 2032 02:51:44.570    24 May 2032 05:14:09.366      8544.7967859    
24 May 2032 06:23:11.842    24 May 2032 08:27:39.200      7467.3575347    
25 May 2032 00:15:45.187    25 May 2032 02:22:53.158      7627.9704660    
25 May 2032 03:31:58.824    25 May 2032 05:54:20.449      8541.6249174    
25 May 2032 07:03:26.470    25 May 2032 08:23:38.983      4812.5136629    
26 May 2032 00:40:39.995    26 May 2032 03:03:01.412      8541.4166613    
26 May 2032 04:12:06.411    26 May 2032 06:34:28.151      8541.7392776    
26 May 2032 07:43:33.029    26 May 2032 08:19:39.418      2166.3887165    
27 May 2032 00:07:49.696    27 May 2032 00:11:43.000      233.30410444    
27 May 2032 01:20:48.512    27 May 2032 03:43:09.899      8541.3869403    
27 May 2032 04:52:15.316    27 May 2032 07:14:36.671      8541.3553038    
28 May 2032 00:03:48.721    28 May 2032 00:51:49.715      2880.9931800    
28 May 2032 02:00:53.296    28 May 2032 04:23:16.493      8543.1970014    
28 May 2032 05:32:20.048    28 May 2032 07:54:43.365      8543.3166271    
28 May 2032 23:59:47.562    29 May 2032 01:31:57.622      5530.0595044    
29 May 2032 02:41:00.945    29 May 2032 05:03:24.181      8543.2353542    
29 May 2032 06:12:27.045    29 May 2032 08:07:20.813      6893.7679413    
29 May 2032 23:55:48.018    30 May 2032 02:12:04.232      8176.2135243    
30 May 2032 03:21:06.344    30 May 2032 05:43:31.352      8545.0076842    
30 May 2032 06:52:33.887    30 May 2032 08:03:16.606      4242.7193781    
31 May 2032 00:29:50.844    31 May 2032 02:52:13.744      8542.9003222    
31 May 2032 04:01:17.724    31 May 2032 06:23:40.593      8542.8685990    
31 May 2032 07:32:44.587    31 May 2032 07:59:11.746      1587.1593308    
31 May 2032 23:47:46.327    01 Jun 2032 00:00:55.740      789.41290097    
01 Jun 2032 01:10:01.214    01 Jun 2032 03:32:22.868      8541.6530202    
01 Jun 2032 04:41:28.629    01 Jun 2032 07:03:49.896      8541.2670895    
01 Jun 2032 23:43:42.279    02 Jun 2032 00:41:02.733      3440.4545119    
02 Jun 2032 01:50:06.338    02 Jun 2032 04:12:29.045      8542.7075345    
02 Jun 2032 05:21:32.010    02 Jun 2032 07:43:55.409      8543.3983010    
02 Jun 2032 23:39:38.734    03 Jun 2032 01:21:08.323      6089.5890742    
03 Jun 2032 02:30:09.402    03 Jun 2032 04:52:34.840      8545.4373213    
03 Jun 2032 06:01:35.432    03 Jun 2032 07:46:38.545      6303.1126237    
03 Jun 2032 23:38:42.774    04 Jun 2032 02:01:12.214      8549.4396174    
04 Jun 2032 03:10:08.396    04 Jun 2032 05:32:38.553      8550.1570553    
04 Jun 2032 06:41:34.262    04 Jun 2032 07:42:30.277      3656.0151607    
05 Jun 2032 00:18:44.809    05 Jun 2032 02:41:17.277      8552.4675072    
05 Jun 2032 03:50:10.394    05 Jun 2032 06:12:43.457      8553.0627847    
05 Jun 2032 07:21:35.746    05 Jun 2032 07:38:19.964      1004.2178601    
05 Jun 2032 23:27:28.670    05 Jun 2032 23:49:54.570      1345.8999688    
06 Jun 2032 00:58:43.911    06 Jun 2032 03:21:21.197      8557.2859859    
06 Jun 2032 04:30:10.511    06 Jun 2032 06:52:47.963      8557.4516112    
06 Jun 2032 23:23:21.731    07 Jun 2032 00:30:02.073      4000.3417122    
07 Jun 2032 01:38:51.875    07 Jun 2032 04:01:28.715      8556.8400186    
07 Jun 2032 05:10:18.353    07 Jun 2032 07:29:47.994      8369.6409183    
07 Jun 2032 23:19:15.939    08 Jun 2032 01:10:09.563      6653.6247916    
08 Jun 2032 02:19:00.112    08 Jun 2032 04:41:36.577      8556.4647000    
08 Jun 2032 05:50:27.428    08 Jun 2032 07:25:33.089      5705.6610495    
08 Jun 2032 23:27:39.680    09 Jun 2032 01:50:16.173      8556.4930329    
09 Jun 2032 02:59:05.376    09 Jun 2032 05:21:42.455      8557.0793190    
09 Jun 2032 06:30:31.114    09 Jun 2032 07:21:20.650      3049.5352250    
10 Jun 2032 00:07:42.955    10 Jun 2032 02:30:21.785      8558.8301606    
10 Jun 2032 03:39:09.500    10 Jun 2032 06:01:48.369      8558.8687826    
10 Jun 2032 07:10:35.833    10 Jun 2032 07:17:04.899      389.06629707    
10 Jun 2032 23:06:57.116    10 Jun 2032 23:38:59.920      1922.8042281    
11 Jun 2032 00:47:44.757    11 Jun 2032 03:10:26.229      8561.4719054    
11 Jun 2032 04:19:10.665    11 Jun 2032 06:41:52.639      8561.9742922    
11 Jun 2032 23:02:47.584    12 Jun 2032 00:19:05.571      4577.9863870    
12 Jun 2032 01:27:49.212    12 Jun 2032 03:50:31.986      8562.7737101    
12 Jun 2032 04:59:15.187    12 Jun 2032 07:08:23.759      7748.5720876    
12 Jun 2032 22:58:39.688    13 Jun 2032 00:59:09.742      7230.0541987    
13 Jun 2032 02:07:50.419    13 Jun 2032 04:30:36.403      8565.9831940    
13 Jun 2032 05:39:17.229    13 Jun 2032 07:04:05.589      5088.3605637    
13 Jun 2032 23:16:33.191    14 Jun 2032 01:39:17.545      8564.3542757    
14 Jun 2032 02:47:59.990    14 Jun 2032 05:10:44.211      8564.2208953    
14 Jun 2032 06:19:26.639    14 Jun 2032 06:59:48.868      2422.2286176    
14 Jun 2032 23:56:41.389    15 Jun 2032 02:19:24.908      8563.5196324    
15 Jun 2032 03:28:08.795    15 Jun 2032 05:50:51.873      8563.0780964    
15 Jun 2032 22:46:12.359    15 Jun 2032 23:28:04.854      2512.4951228    
16 Jun 2032 00:36:48.221    16 Jun 2032 02:59:31.020      8562.7993279    
16 Jun 2032 04:08:13.714    16 Jun 2032 06:30:57.147      8563.4326000    
16 Jun 2032 22:42:00.590    17 Jun 2032 00:08:08.765      5168.1750404    
17 Jun 2032 01:16:49.178    17 Jun 2032 03:39:35.191      8566.0125416    
17 Jun 2032 04:48:15.296    17 Jun 2032 06:46:38.726      7103.4297366    
17 Jun 2032 22:37:50.703    18 Jun 2032 00:48:11.630      7820.9268167    
18 Jun 2032 01:56:47.257    18 Jun 2032 04:19:37.578      8570.3215142    
18 Jun 2032 05:28:12.442    18 Jun 2032 06:42:17.655      4445.2131236    
18 Jun 2032 23:05:20.937    19 Jun 2032 01:28:14.608      8573.6717085    
19 Jun 2032 02:36:46.420    19 Jun 2032 04:59:40.626      8574.2058209    
19 Jun 2032 06:08:11.602    19 Jun 2032 06:37:56.604      1785.0017833    
19 Jun 2032 22:29:29.275    19 Jun 2032 22:36:49.687      440.41219892    
19 Jun 2032 23:45:15.895    20 Jun 2032 02:08:15.699      8579.8041328    
20 Jun 2032 03:16:41.352    20 Jun 2032 05:39:41.871      8580.5189153    
20 Jun 2032 22:25:15.302    20 Jun 2032 23:16:53.985      3098.6831247    
21 Jun 2032 00:25:18.690    21 Jun 2032 02:48:20.302      8581.6120119    
21 Jun 2032 03:56:44.649    21 Jun 2032 06:19:46.539      8581.8905490    
21 Jun 2032 22:21:01.678    21 Jun 2032 23:56:58.165      5756.4871789    
22 Jun 2032 01:05:21.159    22 Jun 2032 03:28:24.743      8583.5839190    
22 Jun 2032 04:36:47.850    22 Jun 2032 06:24:34.952      6467.1025019    
22 Jun 2032 22:16:49.909    23 Jun 2032 00:37:02.792      8412.8823454    
23 Jun 2032 01:45:23.918    23 Jun 2032 04:08:28.670      8584.7517209    
23 Jun 2032 05:16:48.902    23 Jun 2032 06:20:11.214      3802.3117664    
23 Jun 2032 22:53:55.849    24 Jun 2032 01:17:04.840      8588.9914265    
24 Jun 2032 02:25:21.748    24 Jun 2032 04:48:31.066      8589.3176656    
24 Jun 2032 05:56:47.591    24 Jun 2032 06:15:45.891      1138.2992617    
24 Jun 2032 22:08:23.386    24 Jun 2032 22:25:40.867      1037.4807310    
24 Jun 2032 23:33:53.670    25 Jun 2032 01:57:06.639      8592.9681890    
25 Jun 2032 03:05:18.559    25 Jun 2032 05:28:32.462      8593.9020573    
25 Jun 2032 22:04:07.099    25 Jun 2032 23:05:42.961      3695.8622734    
26 Jun 2032 00:13:52.147    26 Jun 2032 02:37:09.087      8596.9406290    
26 Jun 2032 03:45:17.769    26 Jun 2032 06:06:44.046      8486.2766459    
26 Jun 2032 21:59:51.981    26 Jun 2032 23:45:44.193      6352.2119639    
27 Jun 2032 00:53:48.285    27 Jun 2032 03:17:10.205      8601.9194424    
27 Jun 2032 04:25:13.914    27 Jun 2032 06:02:14.645      5820.7313191    
27 Jun 2032 22:02:26.507    28 Jun 2032 00:25:48.782      8602.2749769    
