REPORTS/contacts_1500_01.txt

Target: DALA_SatFine

Observer: Montegancedo
Start Time (UTC)            Stop Time (UTC)               Duration (s)         
02 Oct 2031 13:08:34.365    02 Oct 2031 13:58:53.300      3018.9345379    
02 Oct 2031 14:28:31.559    02 Oct 2031 17:33:48.273      11116.714374    
02 Oct 2031 18:03:28.542    02 Oct 2031 20:46:31.758      9783.2156237    
03 Oct 2031 13:05:17.515    03 Oct 2031 15:03:11.156      7073.6404638    
03 Oct 2031 15:32:56.163    03 Oct 2031 18:38:04.566      11108.403103    
03 Oct 2031 19:07:50.541    03 Oct 2031 20:43:10.951      5720.4101680    
04 Oct 2031 13:02:29.321    04 Oct 2031 16:07:29.012      11099.691265    
04 Oct 2031 16:37:24.841    04 Oct 2031 19:42:22.882      11098.040436    
04 Oct 2031 20:12:19.906    04 Oct 2031 20:39:46.890      1646.9839743    
05 Oct 2031 12:58:40.961    05 Oct 2031 13:36:52.094      2291.1326084    
05 Oct 2031 14:06:57.409    05 Oct 2031 17:11:46.774      11089.365017    
05 Oct 2031 17:41:55.038    05 Oct 2031 20:36:20.564      10465.526294    
06 Oct 2031 12:55:24.686    06 Oct 2031 14:41:18.357      6353.6708236    
06 Oct 2031 15:11:44.842    06 Oct 2031 18:16:12.974      11068.131712    
06 Oct 2031 18:46:41.404    06 Oct 2031 20:33:00.747      6379.3433968    
07 Oct 2031 12:52:10.799    07 Oct 2031 15:45:40.806      10410.006864    
07 Oct 2031 16:16:23.352    07 Oct 2031 19:20:36.058      11052.705355    
07 Oct 2031 19:51:21.575    07 Oct 2031 20:29:39.622      2298.0474540    
08 Oct 2031 12:48:52.714    08 Oct 2031 13:15:10.253      1577.5384812    
08 Oct 2031 13:46:06.084    08 Oct 2031 16:50:04.370      11038.285462    
08 Oct 2031 17:21:01.475    08 Oct 2031 20:24:58.459      11036.983459    
09 Oct 2031 12:45:36.845    09 Oct 2031 14:19:31.415      5634.5694472    
09 Oct 2031 14:50:40.662    09 Oct 2031 17:54:26.201      11025.539026    
09 Oct 2031 18:25:37.427    09 Oct 2031 20:22:55.567      7038.1400617    
10 Oct 2031 12:42:24.961    10 Oct 2031 15:23:48.320      9683.3586964    
10 Oct 2031 15:55:02.068    10 Oct 2031 18:58:41.365      11019.296567    
10 Oct 2031 19:29:55.274    10 Oct 2031 20:19:37.300      2982.0263162    
11 Oct 2031 12:39:09.275    11 Oct 2031 12:53:09.195      839.91995640    
11 Oct 2031 13:24:28.059    11 Oct 2031 16:28:02.823      11014.763936    
11 Oct 2031 16:59:22.543    11 Oct 2031 20:02:56.266      11013.722668    
12 Oct 2031 12:35:53.841    12 Oct 2031 13:57:22.484      4888.6431975    
12 Oct 2031 14:28:46.795    12 Oct 2031 17:32:16.346      11009.550338    
12 Oct 2031 18:03:42.760    12 Oct 2031 20:12:55.446      7752.6862840    
13 Oct 2031 12:32:43.542    13 Oct 2031 15:01:44.001      8940.4590779    
13 Oct 2031 15:33:26.188    13 Oct 2031 18:36:38.200      10992.012805    
13 Oct 2031 19:08:22.049    13 Oct 2031 20:09:39.789      3677.7406809    
14 Oct 2031 12:29:30.293    14 Oct 2031 12:31:08.459      98.165822402    
14 Oct 2031 13:03:01.552    14 Oct 2031 16:06:03.038      10981.485512    
14 Oct 2031 16:37:58.898    14 Oct 2031 19:40:57.834      10978.935952    
15 Oct 2031 12:26:15.508    15 Oct 2031 13:35:31.012      4155.5042092    
15 Oct 2031 14:07:41.067    15 Oct 2031 17:10:25.044      10963.976469    
15 Oct 2031 17:42:36.532    15 Oct 2031 20:03:00.428      8423.8966068    
16 Oct 2031 12:23:06.326    16 Oct 2031 14:39:51.444      8205.1188003    
16 Oct 2031 15:12:16.738    16 Oct 2031 18:14:46.340      10949.602061    
16 Oct 2031 18:47:14.326    16 Oct 2031 19:59:46.959      4352.6326977    
17 Oct 2031 12:41:51.934    17 Oct 2031 15:44:10.591      10938.657078    
17 Oct 2031 16:16:45.879    17 Oct 2031 19:19:03.980      10938.101175    
17 Oct 2031 19:51:40.010    17 Oct 2031 19:56:28.517      288.50693568    
18 Oct 2031 12:16:41.647    18 Oct 2031 13:13:33.517      3411.8696979    
18 Oct 2031 13:46:18.204    18 Oct 2031 16:48:27.650      10929.445678    
18 Oct 2031 17:21:14.172    18 Oct 2031 19:53:10.505      9116.3331265    
19 Oct 2031 12:13:33.116    19 Oct 2031 14:17:50.452      7457.3352652    
19 Oct 2031 14:50:46.519    19 Oct 2031 17:52:44.680      10918.161418    
19 Oct 2031 18:25:43.544    19 Oct 2031 19:49:58.667      5055.1229466    
20 Oct 2031 12:20:37.880    20 Oct 2031 15:22:15.161      10897.281272    
20 Oct 2031 15:55:36.275    20 Oct 2031 18:57:10.035      10893.759613    
20 Oct 2031 19:30:34.018    20 Oct 2031 19:46:42.818      968.80044322    
21 Oct 2031 12:07:12.000    21 Oct 2031 12:51:43.119      2671.1195988    
21 Oct 2031 13:25:21.063    21 Oct 2031 16:26:38.121      10877.058321    
21 Oct 2031 17:00:19.703    21 Oct 2031 19:43:25.575      9785.8720228    
22 Oct 2031 12:04:03.724    22 Oct 2031 13:56:09.212      6725.4885061    
22 Oct 2031 14:30:11.260    22 Oct 2031 17:31:03.813      10852.552864    
22 Oct 2031 18:05:08.113    22 Oct 2031 19:40:14.774      5706.6614175    
23 Oct 2031 12:00:57.002    23 Oct 2031 15:00:32.285      10775.283070    
23 Oct 2031 15:34:53.778    23 Oct 2031 18:35:27.473      10833.695487    
23 Oct 2031 19:09:52.334    23 Oct 2031 19:37:01.622      1629.2885707    
24 Oct 2031 11:57:46.216    24 Oct 2031 12:30:00.355      1934.1385429    
24 Oct 2031 13:04:34.761    24 Oct 2031 16:04:54.087      10819.325914    
24 Oct 2031 16:39:29.132    24 Oct 2031 19:33:45.469      10456.337852    
25 Oct 2031 11:54:37.944    25 Oct 2031 13:34:17.469      5979.5252475    
25 Oct 2031 14:09:00.744    25 Oct 2031 17:09:11.608      10810.863300    
25 Oct 2031 17:43:56.525    25 Oct 2031 19:30:35.198      6398.6733858    
26 Oct 2031 11:51:32.836    26 Oct 2031 14:38:33.839      10021.002756    
26 Oct 2031 15:13:25.045    26 Oct 2031 18:13:27.677      10802.632267    
26 Oct 2031 18:48:20.765    26 Oct 2031 19:27:24.731      2343.9661411    
27 Oct 2031 11:48:23.894    27 Oct 2031 12:08:00.688      1176.7939665    
27 Oct 2031 12:43:09.218    27 Oct 2031 15:42:55.418      10786.200192    
27 Oct 2031 16:18:06.742    27 Oct 2031 19:17:49.958      10783.216199    
28 Oct 2031 11:45:15.582    28 Oct 2031 13:12:20.895      5225.3130892    
28 Oct 2031 13:47:44.507    28 Oct 2031 16:47:15.321      10770.813848    
28 Oct 2031 17:22:41.664    28 Oct 2031 19:20:59.935      7098.2706429    
29 Oct 2031 11:42:11.691    29 Oct 2031 14:16:43.597      9271.9058543    
29 Oct 2031 14:52:26.815    29 Oct 2031 17:51:37.853      10751.037779    
29 Oct 2031 18:27:22.760    29 Oct 2031 19:17:51.977      3029.2170385    
30 Oct 2031 11:39:04.668    30 Oct 2031 11:46:08.996      424.32861649    
30 Oct 2031 12:22:04.154    30 Oct 2031 15:21:03.672      10739.517938    
30 Oct 2031 15:57:01.810    30 Oct 2031 18:55:58.470      10736.660095    
31 Oct 2031 11:35:56.486    31 Oct 2031 12:50:30.488      4474.0020460    
31 Oct 2031 13:26:40.785    31 Oct 2031 16:25:24.131      10723.345224    
31 Oct 2031 17:01:34.900    31 Oct 2031 19:11:29.013      7794.1129735    
01 Nov 2031 11:32:53.372    01 Nov 2031 13:54:46.554      8513.1814543    
01 Nov 2031 14:31:04.398    01 Nov 2031 17:29:40.631      10716.232946    
01 Nov 2031 18:06:00.234    01 Nov 2031 19:08:23.197      3742.9621707    
02 Nov 2031 12:00:34.962    02 Nov 2031 14:59:03.092      10708.130030    
02 Nov 2031 15:35:29.967    02 Nov 2031 18:33:56.896      10706.928321    
03 Nov 2031 11:26:40.503    03 Nov 2031 12:28:29.979      3709.4756828    
03 Nov 2031 13:05:15.985    03 Nov 2031 16:03:24.931      10688.946314    
03 Nov 2031 16:40:14.524    03 Nov 2031 19:02:02.446      8507.9219331    
04 Nov 2031 11:23:37.714    04 Nov 2031 13:32:52.276      7754.5619691    
04 Nov 2031 14:09:58.882    04 Nov 2031 17:07:46.963      10668.081550    
04 Nov 2031 17:44:57.008    04 Nov 2031 18:58:58.248      4441.2396552    
05 Nov 2031 11:39:52.642    05 Nov 2031 14:37:17.598      10644.956010    
05 Nov 2031 15:14:50.909    05 Nov 2031 18:12:12.405      10641.496570    
05 Nov 2031 18:49:48.604    05 Nov 2031 18:55:49.622      361.01812329    
06 Nov 2031 11:17:27.417    06 Nov 2031 12:06:45.911      2958.4935065    
06 Nov 2031 12:44:37.272    06 Nov 2031 15:41:40.999      10623.727314    
06 Nov 2031 16:19:36.325    06 Nov 2031 18:52:40.203      9183.8773531    
07 Nov 2031 11:14:24.553    07 Nov 2031 13:11:11.238      7006.6845298    
07 Nov 2031 13:49:26.211    07 Nov 2031 16:46:05.529      10599.318529    
07 Nov 2031 17:24:22.040    07 Nov 2031 18:49:37.030      5114.9900071    
08 Nov 2031 11:19:01.656    08 Nov 2031 14:15:30.813      10589.157147    
08 Nov 2031 14:53:58.553    08 Nov 2031 17:50:25.304      10586.751008    
08 Nov 2031 18:28:55.457    08 Nov 2031 18:46:30.860      1055.4027911    
09 Nov 2031 11:08:16.936    09 Nov 2031 11:44:56.233      2199.2965966    
09 Nov 2031 12:23:34.702    09 Nov 2031 15:19:50.129      10575.426840    
09 Nov 2031 15:58:30.023    09 Nov 2031 18:43:22.193      9892.1695357    
10 Nov 2031 11:05:13.735    10 Nov 2031 12:49:17.389      6243.6540641    
10 Nov 2031 13:28:15.726    10 Nov 2031 16:24:12.402      10556.676031    
10 Nov 2031 17:03:14.373    10 Nov 2031 18:40:19.493      5825.1203845    
11 Nov 2031 11:02:13.117    11 Nov 2031 13:53:39.933      10286.815770    
11 Nov 2031 14:32:57.657    11 Nov 2031 17:28:34.465      10536.807826    
11 Nov 2031 18:07:55.032    11 Nov 2031 18:37:15.826      1760.7939622    
12 Nov 2031 10:59:08.725    12 Nov 2031 11:23:09.117      1440.3923897    
12 Nov 2031 12:02:47.185    12 Nov 2031 14:58:03.971      10516.786051    
12 Nov 2031 15:37:44.914    12 Nov 2031 18:32:58.653      10513.738322    
13 Nov 2031 10:56:05.119    13 Nov 2031 12:27:30.927      5485.8086757    
13 Nov 2031 13:07:25.575    13 Nov 2031 16:02:25.647      10500.071725    
13 Nov 2031 16:42:23.364    13 Nov 2031 18:31:05.630      6522.2660072    
14 Nov 2031 10:53:05.373    14 Nov 2031 13:31:54.340      9528.9673001    
14 Nov 2031 14:12:08.145    14 Nov 2031 17:06:48.470      10480.324540    
14 Nov 2031 17:47:03.212    14 Nov 2031 18:28:04.341      2461.1291635    
15 Nov 2031 10:50:02.449    15 Nov 2031 11:01:17.938      675.48895392    
15 Nov 2031 11:41:37.166    15 Nov 2031 14:36:12.045      10474.878820    
15 Nov 2031 15:16:32.872    15 Nov 2031 18:11:06.226      10473.353358    
16 Nov 2031 10:46:58.574    16 Nov 2031 12:05:36.012      4717.4381420    
16 Nov 2031 12:46:03.635    16 Nov 2031 15:40:29.650      10466.014941    
16 Nov 2031 16:20:57.898    16 Nov 2031 18:21:55.443      7257.5452065    
17 Nov 2031 10:43:59.281    17 Nov 2031 13:09:54.882      8755.6015876    
17 Nov 2031 13:50:37.003    17 Nov 2031 16:44:49.676      10452.673268    
17 Nov 2031 17:25:35.107    17 Nov 2031 18:18:56.196      3201.0887746    
18 Nov 2031 11:20:20.308    18 Nov 2031 14:14:16.636      10436.327820    
18 Nov 2031 14:55:16.924    18 Nov 2031 17:49:11.055      10434.131310    
19 Nov 2031 10:37:53.939    19 Nov 2031 11:43:45.502      3951.5633765    
19 Nov 2031 12:25:06.384    19 Nov 2031 15:18:40.488      10414.104329    
19 Nov 2031 16:00:04.726    19 Nov 2031 18:12:48.903      7964.1762151    
20 Nov 2031 10:34:54.650    20 Nov 2031 12:48:08.533      7993.8827252    
20 Nov 2031 13:29:49.349    20 Nov 2031 16:23:03.411      10394.061845    
20 Nov 2031 17:04:47.766    20 Nov 2031 18:09:51.178      3903.4116273    
21 Nov 2031 10:59:42.639    21 Nov 2031 13:52:34.110      10371.471492    
21 Nov 2031 14:34:40.129    21 Nov 2031 17:27:28.744      10368.614781    
22 Nov 2031 10:28:50.970    22 Nov 2031 11:22:00.465      3189.4949159    
22 Nov 2031 12:04:17.651    22 Nov 2031 14:56:54.980      10357.329482    
22 Nov 2031 15:39:14.621    22 Nov 2031 18:03:45.947      8671.3262010    
23 Nov 2031 10:25:51.278    23 Nov 2031 12:26:21.932      7230.6542420    
23 Nov 2031 13:08:54.368    23 Nov 2031 16:01:16.060      10341.692459    
23 Nov 2031 16:43:49.901    23 Nov 2031 18:00:49.134      4619.2334940    
24 Nov 2031 10:38:35.262    24 Nov 2031 13:30:43.360      10328.098408    
24 Nov 2031 14:13:34.251    24 Nov 2031 17:05:38.499      10324.248561    
24 Nov 2031 17:48:33.378    24 Nov 2031 17:57:48.899      555.52089361    
25 Nov 2031 10:19:49.371    25 Nov 2031 11:00:13.135      2423.7636419    
25 Nov 2031 11:43:23.958    25 Nov 2031 14:35:07.780      10303.822342    
25 Nov 2031 15:18:21.270    25 Nov 2031 17:54:46.469      9385.1981651    
26 Nov 2031 10:16:49.005    26 Nov 2031 12:04:37.918      6468.9123122    
26 Nov 2031 12:48:13.367    26 Nov 2031 15:39:33.141      10279.773073    
26 Nov 2031 16:23:12.281    26 Nov 2031 17:51:49.969      5317.6882111    
27 Nov 2031 10:18:00.612    27 Nov 2031 13:09:02.263      10261.651047    
27 Nov 2031 13:52:58.241    27 Nov 2031 16:43:57.160      10258.919559    
27 Nov 2031 17:27:56.353    27 Nov 2031 17:48:51.973      1255.6191959    
28 Nov 2031 10:10:48.842    28 Nov 2031 10:38:33.103      1664.2611280    
28 Nov 2031 11:22:50.370    28 Nov 2031 14:13:28.062      10237.692323    
28 Nov 2031 14:57:47.877    28 Nov 2031 17:45:50.293      10082.415401    
29 Nov 2031 10:07:47.727    29 Nov 2031 11:42:54.456      5706.7293380    
29 Nov 2031 12:27:22.684    29 Nov 2031 15:17:48.831      10226.147338    
29 Nov 2031 16:02:18.746    29 Nov 2031 17:42:53.639      6034.8936947    
30 Nov 2031 10:04:50.002    30 Nov 2031 12:47:15.027      9745.0252065    
30 Nov 2031 13:31:53.551    30 Nov 2031 16:22:08.999      10215.448411    
30 Nov 2031 17:06:48.035    30 Nov 2031 17:39:57.789      1989.7534941    
01 Dec 2031 10:01:49.098    01 Dec 2031 10:16:39.716      890.61874095    
01 Dec 2031 11:01:25.985    01 Dec 2031 13:51:34.386      10208.401108    
01 Dec 2031 14:36:23.475    01 Dec 2031 17:26:29.186      10205.711344    
02 Dec 2031 09:58:47.348    02 Dec 2031 11:21:02.575      4935.2263422    
02 Dec 2031 12:06:06.483    02 Dec 2031 14:55:56.962      10190.478922    
02 Dec 2031 15:41:02.620    02 Dec 2031 17:34:00.151      6777.5316086    
03 Dec 2031 09:55:49.745    03 Dec 2031 12:25:25.287      8975.5420437    
03 Dec 2031 13:10:47.563    03 Dec 2031 16:00:20.310      10172.746903    
03 Dec 2031 16:45:45.739    03 Dec 2031 17:31:06.158      2720.4186487    
04 Dec 2031 09:52:49.866    04 Dec 2031 09:54:54.008      124.14177347    
04 Dec 2031 10:40:31.239    04 Dec 2031 13:29:48.623      10157.383492    
04 Dec 2031 14:15:28.179    04 Dec 2031 17:04:43.352      10155.172487    
05 Dec 2031 09:49:47.747    05 Dec 2031 10:59:18.921      4171.1745106    
05 Dec 2031 11:45:18.382    05 Dec 2031 14:34:13.979      10135.597415    
05 Dec 2031 15:20:16.248    05 Dec 2031 17:25:09.534      7493.2863620    
06 Dec 2031 09:46:49.856    06 Dec 2031 12:03:41.237      8211.3803240    
06 Dec 2031 12:49:53.493    06 Dec 2031 15:38:35.732      10122.238188    
06 Dec 2031 16:24:49.882    06 Dec 2031 17:22:16.914      3447.0314898    
07 Dec 2031 10:19:33.414    07 Dec 2031 13:08:03.331      10109.917600    
07 Dec 2031 13:54:29.152    07 Dec 2031 16:42:57.616      10108.464100    
08 Dec 2031 09:40:48.751    08 Dec 2031 10:37:29.542      3400.7912231    
08 Dec 2031 11:24:05.644    08 Dec 2031 14:12:24.437      10098.793409    
08 Dec 2031 14:59:03.787    08 Dec 2031 17:16:21.773      8237.9855961    
09 Dec 2031 09:37:50.201    09 Dec 2031 11:41:54.786      7444.5847333    
09 Dec 2031 12:28:53.469    09 Dec 2031 15:16:49.576      10076.107425    
09 Dec 2031 16:03:50.740    09 Dec 2031 17:13:29.916      4179.1761878    
10 Dec 2031 09:58:41.958    10 Dec 2031 12:46:19.944      10057.985497    
10 Dec 2031 13:33:41.360    10 Dec 2031 16:21:15.355      10053.995370    
10 Dec 2031 17:08:40.712    10 Dec 2031 17:10:34.353      113.64128476    
11 Dec 2031 09:31:50.136    11 Dec 2031 10:15:51.196      2641.0600939    
11 Dec 2031 11:03:32.220    11 Dec 2031 13:50:46.171      10033.950596    
11 Dec 2031 14:38:30.024    11 Dec 2031 17:07:36.768      8946.7438350    
12 Dec 2031 09:28:50.665    12 Dec 2031 11:20:18.324      6687.6590323    
12 Dec 2031 12:08:24.875    12 Dec 2031 14:55:13.766      10008.890296    
12 Dec 2031 15:43:23.791    12 Dec 2031 17:04:45.049      4881.2583791    
13 Dec 2031 09:38:09.252    13 Dec 2031 12:24:43.116      9993.8646748    
13 Dec 2031 13:13:05.646    13 Dec 2031 15:59:37.825      9992.1792654    
13 Dec 2031 16:48:02.285    13 Dec 2031 17:01:51.469      829.18403721    
14 Dec 2031 09:22:51.639    14 Dec 2031 09:54:11.978      1880.3388737    
14 Dec 2031 10:42:46.903    14 Dec 2031 13:29:06.585      9979.6823808    
14 Dec 2031 14:17:42.809    14 Dec 2031 16:58:54.314      9671.5055282    
15 Dec 2031 09:19:51.154    15 Dec 2031 10:58:33.050      5921.8965556    
15 Dec 2031 11:47:16.585    15 Dec 2031 14:33:27.830      9971.2449555    
15 Dec 2031 15:22:13.827    15 Dec 2031 16:56:02.214      5628.3872394    
16 Dec 2031 09:17:02.410    16 Dec 2031 12:02:57.691      9955.2811126    
16 Dec 2031 12:51:59.161    16 Dec 2031 15:37:52.389      9953.2278000    
16 Dec 2031 16:26:55.594    16 Dec 2031 16:53:10.527      1574.9332813    
17 Dec 2031 09:13:52.977    17 Dec 2031 09:32:26.348      1113.3715058    
17 Dec 2031 10:21:40.864    17 Dec 2031 13:07:21.483      9940.6189549    
17 Dec 2031 13:56:39.064    17 Dec 2031 16:42:16.678      9937.6137917    
18 Dec 2031 09:10:51.554    18 Dec 2031 10:36:51.654      5160.1004878    
18 Dec 2031 11:26:23.987    18 Dec 2031 14:11:46.411      9922.4233629    
18 Dec 2031 15:01:20.612    18 Dec 2031 16:47:21.349      6360.7369472    
19 Dec 2031 09:07:53.882    19 Dec 2031 11:41:17.054      9203.1715070    
19 Dec 2031 12:31:08.400    19 Dec 2031 15:16:12.353      9903.9535048    
19 Dec 2031 16:06:06.610    19 Dec 2031 16:44:31.269      2304.6594121    
20 Dec 2031 09:04:53.851    20 Dec 2031 09:10:46.624      352.77217124    
20 Dec 2031 10:00:49.278    20 Dec 2031 12:45:41.164      9891.8864925    
20 Dec 2031 13:35:44.954    20 Dec 2031 16:20:35.737      9890.7826958    
21 Dec 2031 09:01:51.714    21 Dec 2031 10:15:09.463      4397.7492818    
21 Dec 2031 11:05:22.993    21 Dec 2031 13:50:04.081      9881.0885036    
21 Dec 2031 14:40:18.738    21 Dec 2031 16:38:42.438      7103.6995657    
22 Dec 2031 08:58:53.487    22 Dec 2031 11:19:30.433      8436.9459432    
22 Dec 2031 12:09:50.620    22 Dec 2031 14:54:25.149      9874.5291906    
22 Dec 2031 15:44:47.436    22 Dec 2031 16:35:53.483      3066.0471407    
23 Dec 2031 09:39:36.214    23 Dec 2031 12:23:55.438      9859.2246386    
23 Dec 2031 13:14:33.372    23 Dec 2031 15:58:50.311      9856.9392494    
24 Dec 2031 08:52:51.481    24 Dec 2031 09:53:25.009      3633.5279775    
24 Dec 2031 10:44:16.997    24 Dec 2031 13:28:20.316      9843.3184661    
24 Dec 2031 14:19:15.637    24 Dec 2031 16:30:05.433      7849.7961048    
25 Dec 2031 08:49:52.354    25 Dec 2031 10:57:52.288      7679.9345676    
25 Dec 2031 11:49:05.764    25 Dec 2031 14:32:47.373      9821.6089247    
25 Dec 2031 15:24:03.270    25 Dec 2031 16:27:16.982      3793.7121488    
26 Dec 2031 09:18:56.474    26 Dec 2031 12:02:19.876      9803.4018739    
26 Dec 2031 12:53:56.110    26 Dec 2031 15:37:15.586      9799.4758673    
27 Dec 2031 08:43:50.683    27 Dec 2031 09:31:52.227      2881.5441942    
27 Dec 2031 10:23:45.093    27 Dec 2031 13:06:47.199      9782.1054878    
27 Dec 2031 13:58:41.904    27 Dec 2031 16:21:30.205      8568.3016586    
28 Dec 2031 08:40:50.406    28 Dec 2031 10:36:17.863      6927.4565429    
28 Dec 2031 11:28:26.081    28 Dec 2031 14:11:12.915      9766.8337472    
28 Dec 2031 15:03:22.960    28 Dec 2031 16:18:41.617      4518.6566808    
29 Dec 2031 08:58:02.677    29 Dec 2031 11:40:41.339      9758.6621252    
29 Dec 2031 12:32:59.088    29 Dec 2031 15:15:36.254      9757.1660372    
29 Dec 2031 16:07:56.095    29 Dec 2031 16:15:50.859      474.76428577    
30 Dec 2031 08:34:49.107    30 Dec 2031 09:10:12.594      2123.4871343    
30 Dec 2031 10:02:46.190    30 Dec 2031 12:45:07.801      9741.6116167    
30 Dec 2031 13:37:43.679    30 Dec 2031 16:12:56.560      9312.8806145    
31 Dec 2031 08:31:47.577    31 Dec 2031 10:14:38.104      6170.5269700    
31 Dec 2031 11:07:26.630    31 Dec 2031 13:49:33.426      9726.7951549    
31 Dec 2031 14:42:24.840    31 Dec 2031 16:10:07.309      5262.4695859    
01 Jan 2032 08:37:15.822    01 Jan 2032 11:19:05.640      9709.8176507    
01 Jan 2032 12:12:13.003    01 Jan 2032 14:54:00.722      9707.7185289    
01 Jan 2032 15:47:09.968    01 Jan 2032 16:07:18.150      1208.1820450    
02 Jan 2032 08:25:46.515    02 Jan 2032 08:48:36.966      1370.4516763    
02 Jan 2032 09:41:58.824    02 Jan 2032 12:23:32.556      9693.7324734    
02 Jan 2032 13:16:57.628    02 Jan 2032 15:58:28.172      9690.5438472    
03 Jan 2032 08:22:43.794    03 Jan 2032 09:53:04.564      5420.7703422    
03 Jan 2032 10:46:42.944    03 Jan 2032 13:27:59.436      9676.4922116    
03 Jan 2032 14:21:38.947    03 Jan 2032 16:01:34.042      5995.0950937    
04 Jan 2032 08:19:44.465    04 Jan 2032 10:57:29.175      9464.7102300    
04 Jan 2032 11:51:17.555    04 Jan 2032 14:32:24.118      9666.5629447    
04 Jan 2032 15:26:13.708    04 Jan 2032 15:58:46.225      1952.5173767    
05 Jan 2032 08:16:42.681    05 Jan 2032 08:26:57.122      614.44147588    
05 Jan 2032 09:20:49.204    05 Jan 2032 12:01:51.661      9662.4573186    
05 Jan 2032 12:55:44.451    05 Jan 2032 15:36:46.331      9661.8799662    
06 Jan 2032 08:13:38.976    06 Jan 2032 09:31:21.696      4662.7198793    
06 Jan 2032 10:25:25.549    06 Jan 2032 13:06:16.808      9651.2583971    
06 Jan 2032 14:00:22.438    06 Jan 2032 15:53:01.815      6759.3767992    
07 Jan 2032 08:10:38.919    07 Jan 2032 10:35:46.480      8707.5614042    
07 Jan 2032 11:30:01.479    07 Jan 2032 14:10:41.681      9640.2016388    
07 Jan 2032 15:04:59.029    07 Jan 2032 15:50:14.869      2715.8399890    
08 Jan 2032 08:59:48.804    08 Jan 2032 11:40:13.923      9625.1194598    
08 Jan 2032 12:34:46.022    08 Jan 2032 15:15:09.084      9623.0617468    
09 Jan 2032 08:04:33.023    09 Jan 2032 09:09:45.616      3912.5931839    
09 Jan 2032 10:04:31.636    09 Jan 2032 12:44:41.317      9609.6808434    
09 Jan 2032 13:39:30.626    09 Jan 2032 15:44:30.567      7499.9418769    
10 Jan 2032 08:01:31.914    10 Jan 2032 10:14:14.913      7962.9987308    
10 Jan 2032 11:09:20.200    10 Jan 2032 13:49:10.097      9589.8979663    
10 Jan 2032 14:44:17.022    10 Jan 2032 15:41:43.866      3446.8435124    
11 Jan 2032 08:39:02.976    11 Jan 2032 11:18:41.678      9578.7027456    
11 Jan 2032 12:14:00.485    11 Jan 2032 14:53:37.008      9576.5228672    
12 Jan 2032 07:55:25.792    12 Jan 2032 08:48:12.029      3166.2374329    
12 Jan 2032 09:43:38.589    12 Jan 2032 12:23:06.898      9568.3090941    
12 Jan 2032 13:18:34.594    12 Jan 2032 15:36:00.128      8245.5341074    
13 Jan 2032 07:52:23.378    13 Jan 2032 09:52:38.828      7215.4505451    
13 Jan 2032 10:48:20.097    13 Jan 2032 13:27:34.328      9554.2310832    
13 Jan 2032 14:23:17.959    13 Jan 2032 15:33:13.002      4195.0432556    
14 Jan 2032 08:18:03.926    14 Jan 2032 10:57:06.067      9542.1411625    
14 Jan 2032 11:53:01.479    14 Jan 2032 14:32:01.522      9540.0422300    
14 Jan 2032 15:27:59.467    14 Jan 2032 15:30:23.386      143.91966483    
15 Jan 2032 07:46:17.071    15 Jan 2032 08:26:39.936      2422.8650574    
15 Jan 2032 09:22:52.004    15 Jan 2032 12:01:35.488      9523.4835766    
15 Jan 2032 12:57:49.813    15 Jan 2032 15:27:30.234      8980.4206891    
16 Jan 2032 07:43:13.211    16 Jan 2032 09:31:08.360      6475.1491856    
16 Jan 2032 10:27:36.500    16 Jan 2032 13:06:04.181      9507.6810509    
16 Jan 2032 14:02:35.457    16 Jan 2032 15:24:42.126      4926.6689153    
17 Jan 2032 07:57:28.724    17 Jan 2032 10:35:38.829      9490.1048921    
17 Jan 2032 11:32:25.957    17 Jan 2032 14:10:34.161      9488.2039255    
17 Jan 2032 15:07:22.788    17 Jan 2032 15:21:53.757      870.96888651    
18 Jan 2032 07:37:06.604    18 Jan 2032 08:05:10.604      1684.0000900    
18 Jan 2032 09:02:07.179    18 Jan 2032 11:40:06.000      9478.8208417    
18 Jan 2032 12:37:04.322    18 Jan 2032 15:15:01.360      9477.0373376    
19 Jan 2032 07:34:01.316    19 Jan 2032 09:09:36.408      5735.0919054    
19 Jan 2032 10:06:39.890    19 Jan 2032 12:44:31.171      9471.2808479    
19 Jan 2032 13:41:35.047    19 Jan 2032 15:16:11.171      5676.1243761    
20 Jan 2032 07:36:17.172    20 Jan 2032 10:14:02.019      9464.8470610    
20 Jan 2032 11:11:14.379    20 Jan 2032 13:48:57.379      9462.9991632    
20 Jan 2032 14:46:11.396    20 Jan 2032 15:13:23.799      1632.4029813    
21 Jan 2032 07:27:54.180    21 Jan 2032 07:43:33.007      938.82726731    
21 Jan 2032 08:40:52.758    21 Jan 2032 11:18:28.106      9455.3480800    
21 Jan 2032 12:15:49.146    21 Jan 2032 14:53:23.313      9454.1669703    
22 Jan 2032 07:24:47.639    22 Jan 2032 08:48:00.739      4993.0998540    
22 Jan 2032 09:45:33.615    22 Jan 2032 12:22:56.165      9442.5502108    
22 Jan 2032 13:20:30.698    22 Jan 2032 15:07:40.093      6429.3943228    
23 Jan 2032 07:21:44.498    23 Jan 2032 09:52:28.073      9043.5749451    
23 Jan 2032 10:50:12.284    23 Jan 2032 13:27:23.721      9431.4370456    
23 Jan 2032 14:25:10.402    23 Jan 2032 15:04:53.256      2382.8538576    
24 Jan 2032 07:18:39.645    24 Jan 2032 07:22:02.667      203.02130815    
24 Jan 2032 08:20:01.735    24 Jan 2032 10:56:58.187      9416.4512456    
24 Jan 2032 11:54:58.891    24 Jan 2032 14:31:53.570      9414.6789528    
25 Jan 2032 07:15:32.120    25 Jan 2032 08:26:30.183      4258.0628909    
25 Jan 2032 09:24:39.428    25 Jan 2032 12:01:25.657      9406.2282027    
25 Jan 2032 12:59:36.634    25 Jan 2032 14:59:08.812      7172.1777908    
26 Jan 2032 07:12:27.804    26 Jan 2032 09:30:57.106      8309.3020438    
26 Jan 2032 10:29:14.399    26 Jan 2032 13:05:52.031      9397.6324858    
26 Jan 2032 14:04:09.843    26 Jan 2032 14:56:21.901      3132.0580958    
27 Jan 2032 07:58:53.113    27 Jan 2032 10:35:23.803      9390.6899145    
27 Jan 2032 11:33:50.803    27 Jan 2032 14:10:19.416      9388.6132686    
28 Jan 2032 07:06:14.656    28 Jan 2032 08:04:56.527      3521.8701794    
28 Jan 2032 09:03:33.306    28 Jan 2032 11:39:51.886      9378.5801450    
28 Jan 2032 12:38:30.245    28 Jan 2032 14:50:37.190      7926.9448867    
29 Jan 2032 07:03:08.915    29 Jan 2032 09:09:26.254      7577.3390946    
29 Jan 2032 10:08:18.674    29 Jan 2032 12:44:22.054      9363.3795611    
29 Jan 2032 13:43:16.680    29 Jan 2032 14:47:49.558      3872.8782823    
30 Jan 2032 07:38:04.428    30 Jan 2032 10:13:55.949      9351.5210965    
30 Jan 2032 11:13:02.612    30 Jan 2032 13:48:51.868      9349.2562250    
31 Jan 2032 06:56:55.095    31 Jan 2032 07:43:32.518      2797.4225309    
31 Jan 2032 08:42:56.433    31 Jan 2032 11:18:28.433      9331.9999762    
31 Jan 2032 12:17:54.501    31 Jan 2032 14:42:05.023      8650.5223459    
01 Feb 2032 06:53:47.778    01 Feb 2032 08:48:02.308      6854.5295577    
01 Feb 2032 09:47:38.740    01 Feb 2032 12:22:58.035      9319.2951190    
01 Feb 2032 13:22:36.392    01 Feb 2032 14:39:16.109      4599.7171243    
02 Feb 2032 07:17:21.190    02 Feb 2032 09:52:31.078      9309.8875974    
02 Feb 2032 10:52:16.931    02 Feb 2032 13:27:26.182      9309.2501675    
02 Feb 2032 14:27:12.504    02 Feb 2032 14:36:26.483      553.97827725    
03 Feb 2032 06:47:33.259    03 Feb 2032 07:22:02.648      2069.3882594    
03 Feb 2032 08:21:54.566    03 Feb 2032 10:56:58.279      9303.7129672    
03 Feb 2032 11:56:51.955    03 Feb 2032 14:31:53.935      9301.9798268    
04 Feb 2032 06:44:24.351    04 Feb 2032 08:26:31.182      6126.8305030    
04 Feb 2032 09:26:32.547    04 Feb 2032 12:01:26.473      9293.9257585    
04 Feb 2032 13:01:28.835    04 Feb 2032 14:30:41.483      5352.6482955    
05 Feb 2032 06:56:15.003    05 Feb 2032 09:31:00.106      9285.1037013    
05 Feb 2032 10:31:12.610    05 Feb 2032 13:05:55.814      9283.2044968    
05 Feb 2032 14:06:09.963    05 Feb 2032 14:27:52.531      1302.5679782    
06 Feb 2032 06:38:08.978    06 Feb 2032 07:00:33.253      1344.2757301    
06 Feb 2032 08:00:53.626    06 Feb 2032 10:35:28.799      9275.1728214    
06 Feb 2032 11:35:50.721    06 Feb 2032 14:10:24.479      9273.7579584    
07 Feb 2032 06:34:58.600    07 Feb 2032 08:05:04.249      5405.6493872    
07 Feb 2032 09:05:39.116    07 Feb 2032 11:40:00.066      9260.9498964    
07 Feb 2032 12:40:36.580    07 Feb 2032 14:22:05.607      6089.0267382    
08 Feb 2032 06:35:19.809    08 Feb 2032 09:09:33.158      9253.3489286    
08 Feb 2032 10:10:16.578    08 Feb 2032 12:44:28.735      9252.1569308    
08 Feb 2032 13:45:13.512    08 Feb 2032 14:19:16.887      2043.3750782    
09 Feb 2032 06:28:42.100    09 Feb 2032 06:39:06.236      624.13626022    
09 Feb 2032 07:39:56.083    09 Feb 2032 10:14:01.388      9245.3045358    
09 Feb 2032 11:14:51.465    09 Feb 2032 13:48:56.433      9244.9683508    
10 Feb 2032 06:25:30.469    10 Feb 2032 07:43:32.354      4681.8848314    
10 Feb 2032 08:44:25.832    10 Feb 2032 11:18:27.910      9242.0788121    
10 Feb 2032 12:19:22.793    10 Feb 2032 14:13:28.348      6845.5545995    
11 Feb 2032 06:22:22.007    11 Feb 2032 08:48:00.994      8738.9868429    
11 Feb 2032 09:49:02.747    11 Feb 2032 12:22:56.325      9233.5774544    
11 Feb 2032 13:23:58.938    11 Feb 2032 14:10:39.255      2800.3169071    
12 Feb 2032 07:18:44.836    12 Feb 2032 09:52:30.338      9225.5012171    
12 Feb 2032 10:53:42.678    12 Feb 2032 13:27:26.220      9223.5420620    
13 Feb 2032 06:15:59.844    13 Feb 2032 07:22:04.688      3964.8439881    
13 Feb 2032 08:23:26.091    13 Feb 2032 10:57:00.405      9214.3147635    
13 Feb 2032 11:58:23.472    13 Feb 2032 14:04:49.512      7586.0394303    
14 Feb 2032 06:12:49.879    14 Feb 2032 08:26:37.308      8027.4289731    
14 Feb 2032 09:28:14.978    14 Feb 2032 12:01:33.493      9198.5141407    
14 Feb 2032 13:03:13.342    14 Feb 2032 14:01:59.391      3526.0487300    
15 Feb 2032 06:58:00.871    15 Feb 2032 09:31:08.736      9187.8654784    
15 Feb 2032 10:32:58.372    15 Feb 2032 13:06:04.641      9186.2694626    
16 Feb 2032 06:06:26.565    16 Feb 2032 07:00:44.079      3257.5137414    
16 Feb 2032 08:02:43.285    16 Feb 2032 10:35:39.635      9176.3501277    
16 Feb 2032 11:37:39.616    16 Feb 2032 13:56:08.862      8309.2459620    
17 Feb 2032 06:03:14.915    17 Feb 2032 08:05:12.354      7317.4389126    
17 Feb 2032 09:07:17.420    17 Feb 2032 11:40:08.142      9170.7221797    
17 Feb 2032 12:42:14.784    17 Feb 2032 13:53:17.122      4262.3382675    
18 Feb 2032 06:37:01.061    18 Feb 2032 09:09:42.801      9161.7407439    
18 Feb 2032 10:11:57.580    18 Feb 2032 12:44:38.333      9160.7522962    
18 Feb 2032 13:46:54.018    18 Feb 2032 13:50:23.998      209.97940383    
19 Feb 2032 05:56:50.491    19 Feb 2032 06:39:17.016      2546.5248285    
19 Feb 2032 07:41:39.900    19 Feb 2032 10:14:13.022      9153.1220840    
19 Feb 2032 11:16:37.732    19 Feb 2032 13:47:26.110      9048.3782459    
20 Feb 2032 05:53:37.091    20 Feb 2032 07:43:47.903      6610.8118273    
20 Feb 2032 08:46:20.637    20 Feb 2032 11:18:43.596      9142.9585032    
20 Feb 2032 12:21:17.575    20 Feb 2032 13:44:32.328      4994.7533397    
21 Feb 2032 06:16:07.671    21 Feb 2032 08:48:20.133      9132.4616059    
21 Feb 2032 09:51:06.010    21 Feb 2032 12:23:16.307      9130.2966747    
21 Feb 2032 13:26:04.033    21 Feb 2032 13:41:39.488      935.45534145    
22 Feb 2032 05:47:11.478    22 Feb 2032 06:17:55.477      1843.9984672    
22 Feb 2032 07:20:49.244    22 Feb 2032 09:52:51.190      9121.9456124    
22 Feb 2032 10:55:46.051    22 Feb 2032 13:27:46.953      9120.9017511    
23 Feb 2032 05:43:56.385    23 Feb 2032 07:22:25.846      5909.4605897    
23 Feb 2032 08:25:27.320    23 Feb 2032 10:57:21.313      9113.9933345    
23 Feb 2032 12:00:23.125    23 Feb 2032 13:35:44.929      5721.8036992    
24 Feb 2032 05:54:59.937    24 Feb 2032 08:26:52.900      9112.9626308    
24 Feb 2032 09:29:55.996    24 Feb 2032 12:01:48.442      9112.4458531    
24 Feb 2032 13:04:52.414    24 Feb 2032 13:32:52.000      1679.5851421    
25 Feb 2032 05:37:29.386    25 Feb 2032 05:56:26.648      1137.2622539    
25 Feb 2032 06:59:35.086    25 Feb 2032 09:31:22.088      9107.0016448    
25 Feb 2032 10:34:30.961    25 Feb 2032 13:06:17.458      9106.4960507    
26 Feb 2032 05:34:12.761    26 Feb 2032 07:00:55.161      5202.4008933    
26 Feb 2032 08:04:08.713    26 Feb 2032 10:35:51.016      9102.3030131    
26 Feb 2032 11:39:05.935    26 Feb 2032 13:26:54.845      6468.9101006    
27 Feb 2032 05:33:50.225    27 Feb 2032 08:05:25.491      9095.2662484    
27 Feb 2032 09:08:46.603    27 Feb 2032 11:40:21.104      9094.5010821    
27 Feb 2032 12:43:43.120    27 Feb 2032 13:24:01.286      2418.1660523    
28 Feb 2032 05:27:44.084    28 Feb 2032 05:35:01.107      437.02294452    
28 Feb 2032 06:38:31.560    28 Feb 2032 09:09:57.419      9085.8591568    
28 Feb 2032 10:13:29.914    28 Feb 2032 12:44:53.695      9083.7817522    
29 Feb 2032 05:24:26.159    29 Feb 2032 06:39:33.648      4507.4885025    
29 Feb 2032 07:43:14.733    29 Feb 2032 10:14:29.507      9074.7738109    
29 Feb 2032 11:18:11.799    29 Feb 2032 13:18:01.944      7190.1448661    
01 Mar 2032 05:21:11.123    01 Mar 2032 07:44:05.490      8574.3677870    
01 Mar 2032 08:47:56.047    01 Mar 2032 11:19:01.274      9065.2267532    
01 Mar 2032 12:22:52.619    01 Mar 2032 13:15:07.131      3134.5117469    
02 Mar 2032 06:17:32.537    02 Mar 2032 08:48:34.466      9061.9287847    
02 Mar 2032 09:52:29.048    02 Mar 2032 12:23:30.234      9061.1856875    
03 Mar 2032 05:14:36.498    03 Mar 2032 06:18:09.941      3813.4430692    
03 Mar 2032 07:22:12.021    03 Mar 2032 09:53:05.718      9053.6969450    
03 Mar 2032 10:57:08.655    03 Mar 2032 13:09:06.015      7917.3601117    
04 Mar 2032 05:11:19.749    04 Mar 2032 07:22:40.391      7880.6418224    
04 Mar 2032 08:26:49.609    04 Mar 2032 10:57:36.494      9046.8846611    
04 Mar 2032 12:01:47.325    04 Mar 2032 13:06:09.339      3862.0141797    
05 Mar 2032 05:56:34.557    05 Mar 2032 08:27:12.667      9038.1094705    
05 Mar 2032 09:31:31.382    05 Mar 2032 12:02:08.495      9037.1121130    
06 Mar 2032 05:04:43.665    06 Mar 2032 05:56:49.244      3125.5794578    
06 Mar 2032 07:01:17.465    06 Mar 2032 09:31:45.725      9028.2605285    
06 Mar 2032 10:36:16.054    06 Mar 2032 13:00:06.765      8630.7109434    
07 Mar 2032 05:01:25.076    07 Mar 2032 07:01:23.055      7197.9787277    
07 Mar 2032 08:06:02.380    07 Mar 2032 10:36:19.010      9016.6299124    
07 Mar 2032 11:40:59.442    07 Mar 2032 12:57:07.735      4568.2924054    
08 Mar 2032 05:35:46.321    08 Mar 2032 08:05:55.386      9009.0647923    
08 Mar 2032 09:10:43.311    08 Mar 2032 11:40:51.249      9007.9380357    
08 Mar 2032 12:45:39.867    08 Mar 2032 12:54:08.633      508.76655683    
09 Mar 2032 04:54:47.516    09 Mar 2032 05:35:28.746      2441.2301164    
09 Mar 2032 06:40:18.301    09 Mar 2032 09:10:24.242      9005.9418587    
09 Mar 2032 10:15:14.175    09 Mar 2032 12:45:19.853      9005.6781034    
10 Mar 2032 04:51:27.053    10 Mar 2032 06:39:58.872      6511.8195880    
10 Mar 2032 07:44:53.459    10 Mar 2032 10:14:54.525      9001.0654090    
10 Mar 2032 11:19:49.522    10 Mar 2032 12:48:02.162      5292.6400569    
11 Mar 2032 05:14:28.980    11 Mar 2032 07:44:27.900      8998.9198790    
11 Mar 2032 08:49:25.532    11 Mar 2032 11:19:23.743      8998.2103658    
11 Mar 2032 12:24:22.344    11 Mar 2032 12:45:02.661      1240.3179537    
12 Mar 2032 04:44:47.869    12 Mar 2032 05:14:03.047      1755.1782149    
12 Mar 2032 06:19:05.850    12 Mar 2032 08:48:58.687      8992.8371904    
12 Mar 2032 09:54:01.915    12 Mar 2032 12:23:54.284      8992.3687522    
13 Mar 2032 04:41:25.598    13 Mar 2032 06:18:33.685      5828.0868955    
13 Mar 2032 07:23:42.589    13 Mar 2032 09:53:29.951      8987.3620994    
13 Mar 2032 10:58:40.447    13 Mar 2032 12:38:52.488      6012.0408213    
14 Mar 2032 04:53:27.371    14 Mar 2032 07:23:06.587      8979.2166968    
14 Mar 2032 08:28:24.012    14 Mar 2032 10:58:02.431      8978.4194949    
14 Mar 2032 12:03:20.627    14 Mar 2032 12:35:52.110      1951.4828664    
15 Mar 2032 04:34:44.552    15 Mar 2032 04:52:42.394      1077.8425771    
15 Mar 2032 05:58:05.838    15 Mar 2032 08:27:38.416      8972.5779913    
15 Mar 2032 09:33:02.778    15 Mar 2032 12:02:34.324      8971.5460704    
16 Mar 2032 04:31:20.643    16 Mar 2032 05:57:12.062      5151.4188272    
16 Mar 2032 07:02:37.935    16 Mar 2032 09:32:07.558      8969.6227053    
16 Mar 2032 10:37:33.707    16 Mar 2032 12:29:38.557      6724.8496643    
17 Mar 2032 04:32:16.921    17 Mar 2032 07:01:42.607      8965.6865386    
17 Mar 2032 08:07:13.616    17 Mar 2032 10:36:38.432      8964.8161369    
17 Mar 2032 11:42:10.053    17 Mar 2032 12:26:36.708      2666.6552006    
18 Mar 2032 04:24:37.455    18 Mar 2032 04:31:16.852      399.39723832    
18 Mar 2032 05:36:51.056    18 Mar 2032 08:06:12.723      8961.6667053    
18 Mar 2032 09:11:47.861    18 Mar 2032 11:41:08.717      8960.8560730    
19 Mar 2032 04:21:12.136    19 Mar 2032 05:35:49.210      4477.0735353    
19 Mar 2032 06:41:31.140    19 Mar 2032 09:10:45.122      8953.9814478    
19 Mar 2032 10:16:27.800    19 Mar 2032 12:20:20.153      7432.3536019    
20 Mar 2032 04:17:49.521    20 Mar 2032 06:40:21.393      8551.8713948    
20 Mar 2032 07:46:10.994    20 Mar 2032 10:15:17.889      8946.8947394    
20 Mar 2032 11:21:09.334    20 Mar 2032 12:17:16.224      3366.8900913    
21 Mar 2032 05:15:59.605    21 Mar 2032 07:44:56.361      8936.7554173    
21 Mar 2032 08:50:56.882    21 Mar 2032 11:19:52.483      8935.6004421    
22 Mar 2032 04:11:00.000    22 Mar 2032 05:14:33.657      3813.6567248    
22 Mar 2032 06:20:41.692    22 Mar 2032 08:49:29.948      8928.2558487    
22 Mar 2032 09:55:39.202    22 Mar 2032 12:10:57.025      8117.8230639    
23 Mar 2032 04:07:35.485    23 Mar 2032 06:19:05.034      7889.5485980    
23 Mar 2032 07:25:17.127    23 Mar 2032 09:54:00.639      8923.5118227    
23 Mar 2032 11:00:12.998    23 Mar 2032 12:07:50.487      4057.4892831    
24 Mar 2032 04:54:56.193    24 Mar 2032 07:23:36.083      8919.8898951    
24 Mar 2032 08:29:52.926    24 Mar 2032 10:58:31.983      8919.0574262    
25 Mar 2032 04:00:44.118    25 Mar 2032 04:53:10.369      3146.2513966    
25 Mar 2032 05:59:29.334    25 Mar 2032 08:28:06.126      8916.7920185    
25 Mar 2032 09:34:25.658    25 Mar 2032 12:01:28.899      8823.2412931    
26 Mar 2032 03:57:17.595    26 Mar 2032 05:57:41.946      7224.3508608    
26 Mar 2032 07:04:06.216    26 Mar 2032 09:32:37.740      8911.5240112    
26 Mar 2032 10:39:02.394    26 Mar 2032 11:58:19.380      4756.9867664    
27 Mar 2032 04:33:43.756    27 Mar 2032 07:02:12.636      8908.8803038    
27 Mar 2032 08:08:40.952    27 Mar 2032 10:37:08.863      8907.9102967    
27 Mar 2032 11:43:38.451    27 Mar 2032 11:55:10.610      692.15826290    
28 Mar 2032 03:50:24.352    28 Mar 2032 04:31:50.139      2485.7865987    
28 Mar 2032 05:38:25.401    28 Mar 2032 08:06:46.125      8900.7239465    
28 Mar 2032 09:13:22.028    28 Mar 2032 11:41:42.032      8900.0042172    
29 Mar 2032 03:46:55.810    29 Mar 2032 05:36:21.989      6566.1795288    
29 Mar 2032 06:43:02.385    29 Mar 2032 09:11:18.082      8895.6971954    
29 Mar 2032 10:17:59.300    29 Mar 2032 11:48:42.809      5443.5088303    
30 Mar 2032 04:12:39.075    30 Mar 2032 06:40:52.217      8893.1423598    
30 Mar 2032 07:47:34.220    30 Mar 2032 10:15:47.604      8893.3830225    
30 Mar 2032 11:22:29.434    30 Mar 2032 11:45:32.998      1383.5634080    
31 Mar 2032 03:40:00.570    31 Mar 2032 04:10:25.978      1825.4080216    
31 Mar 2032 05:17:09.533    31 Mar 2032 07:45:21.835      8892.3021021    
31 Mar 2032 08:52:05.872    31 Mar 2032 11:20:17.629      8891.7573360    
01 Apr 2032 03:36:30.093    01 Apr 2032 05:14:55.518      5905.4249542    
01 Apr 2032 06:21:40.365    01 Apr 2032 08:49:51.146      8890.7808948    
01 Apr 2032 09:56:36.302    01 Apr 2032 11:39:00.641      6144.3384195    
02 Apr 2032 03:51:19.471    02 Apr 2032 06:19:26.711      8887.2398748    
02 Apr 2032 07:26:15.984    02 Apr 2032 09:54:22.557      8886.5732790    
02 Apr 2032 11:01:12.251    02 Apr 2032 11:35:49.281      2077.0296898    
03 Apr 2032 03:29:32.652    03 Apr 2032 03:49:01.504      1168.8519928    
03 Apr 2032 04:55:53.666    03 Apr 2032 07:23:57.616      8883.9499019    
03 Apr 2032 08:30:50.856    03 Apr 2032 10:58:53.888      8883.0315096    
04 Apr 2032 03:26:00.400    04 Apr 2032 04:53:35.988      5255.5878326    
04 Apr 2032 06:00:37.228    04 Apr 2032 08:28:32.205      8874.9765084    
04 Apr 2032 09:35:34.375    04 Apr 2032 11:29:12.669      6818.2937209    
05 Apr 2032 03:30:20.065    05 Apr 2032 05:58:09.361      8869.2958053    
05 Apr 2032 07:05:17.613    05 Apr 2032 09:33:05.717      8868.1044261    
05 Apr 2032 10:40:15.151    05 Apr 2032 11:25:59.168      2744.0172382    
06 Apr 2032 03:19:00.475    06 Apr 2032 03:27:46.061      525.58524327    
06 Apr 2032 04:34:58.669    06 Apr 2032 07:02:41.738      8863.0693869    
06 Apr 2032 08:09:54.442    06 Apr 2032 10:37:37.373      8862.9315155    
07 Apr 2032 03:15:26.643    07 Apr 2032 04:32:16.768      4610.1252277    
07 Apr 2032 05:39:32.465    07 Apr 2032 08:07:12.857      8860.3921590    
07 Apr 2032 09:14:29.318    07 Apr 2032 11:19:18.625      7489.3069058    
08 Apr 2032 03:11:55.515    08 Apr 2032 05:36:47.836      8692.3207870    
08 Apr 2032 06:44:06.456    08 Apr 2032 09:11:43.577      8857.1205790    
08 Apr 2032 10:19:02.564    08 Apr 2032 11:16:02.404      3419.8403327    
09 Apr 2032 04:13:46.419    09 Apr 2032 06:41:19.721      8853.3016152    
09 Apr 2032 07:48:43.115    09 Apr 2032 10:16:15.673      8852.5584420    
10 Apr 2032 03:04:48.688    10 Apr 2032 04:10:54.662      3965.9734127    
10 Apr 2032 05:18:20.403    10 Apr 2032 07:45:50.675      8850.2718791    
10 Apr 2032 08:53:17.232    10 Apr 2032 11:09:18.222      8160.9902364    
11 Apr 2032 03:01:15.491    11 Apr 2032 05:15:28.599      8053.1082413    
11 Apr 2032 06:23:01.889    11 Apr 2032 08:50:24.755      8842.8661709    
11 Apr 2032 09:57:58.770    11 Apr 2032 11:05:58.801      4080.0307778    
12 Apr 2032 03:52:42.137    12 Apr 2032 06:20:01.017      8838.8799077    
12 Apr 2032 07:27:39.132    12 Apr 2032 09:54:57.196      8838.0640143    
12 Apr 2032 11:02:36.159    12 Apr 2032 11:02:37.974      1.8145508599    
13 Apr 2032 02:54:06.402    13 Apr 2032 03:49:36.810      3330.4079220    
13 Apr 2032 04:57:17.473    13 Apr 2032 07:24:32.295      8834.8212368    
13 Apr 2032 08:32:12.672    13 Apr 2032 10:59:11.168      8818.4957137    
14 Apr 2032 02:50:31.028    14 Apr 2032 04:54:05.593      7414.5651523    
14 Apr 2032 06:01:45.974    14 Apr 2032 08:29:01.401      8835.4275470    
14 Apr 2032 09:36:42.095    14 Apr 2032 10:55:48.214      4746.1194558    
15 Apr 2032 03:31:19.965    15 Apr 2032 05:58:34.833      8834.8678696    
15 Apr 2032 07:06:15.105    15 Apr 2032 09:33:30.256      8835.1510084    
15 Apr 2032 10:41:10.379    15 Apr 2032 10:52:26.122      675.74279923    
16 Apr 2032 02:43:19.670    16 Apr 2032 03:28:08.826      2689.1560850    
16 Apr 2032 04:35:50.389    16 Apr 2032 07:03:04.652      8834.2636992    
16 Apr 2032 08:10:46.512    16 Apr 2032 10:38:00.396      8833.8834817    
17 Apr 2032 02:39:42.095    17 Apr 2032 04:32:38.249      6776.1540613    
17 Apr 2032 05:40:20.347    17 Apr 2032 08:07:33.997      8833.6491985    
17 Apr 2032 09:15:16.508    17 Apr 2032 10:45:30.529      5414.0209742    
18 Apr 2032 03:10:01.807    18 Apr 2032 05:37:10.957      8829.1503871    
18 Apr 2032 06:44:58.834    18 Apr 2032 09:12:07.071      8828.2371125    
18 Apr 2032 10:19:55.610    18 Apr 2032 10:42:06.830      1331.2196502    
19 Apr 2032 02:32:28.370    19 Apr 2032 03:06:46.997      2058.6273215    
19 Apr 2032 04:14:38.484    19 Apr 2032 06:41:43.130      8824.6462549    
19 Apr 2032 07:49:35.453    19 Apr 2032 10:16:39.326      8823.8730571    
20 Apr 2032 02:28:48.655    20 Apr 2032 04:11:19.555      6150.8999328    
20 Apr 2032 05:19:15.459    20 Apr 2032 07:46:15.194      8819.7356681    
20 Apr 2032 08:54:11.036    20 Apr 2032 10:35:05.641      6054.6055566    
21 Apr 2032 02:48:49.583    21 Apr 2032 05:15:49.162      8819.5785691    
21 Apr 2032 06:23:45.989    21 Apr 2032 08:50:45.122      8819.1330342    
21 Apr 2032 09:58:42.503    21 Apr 2032 10:31:39.881      1977.3779470    
22 Apr 2032 02:21:32.383    22 Apr 2032 02:45:24.232      1431.8492304    
22 Apr 2032 03:53:22.994    22 Apr 2032 06:20:19.821      8816.8270840    
22 Apr 2032 07:28:18.583    22 Apr 2032 09:55:15.414      8816.8312419    
23 Apr 2032 02:17:50.661    23 Apr 2032 03:49:54.789      5524.1281256    
23 Apr 2032 04:57:56.177    23 Apr 2032 07:24:50.826      8814.6484120    
23 Apr 2032 08:32:52.809    23 Apr 2032 10:24:33.428      6700.6194315    
24 Apr 2032 02:27:33.128    24 Apr 2032 04:54:25.547      8812.4194403    
24 Apr 2032 06:02:29.147    24 Apr 2032 08:29:21.381      8812.2339580    
24 Apr 2032 09:37:25.474    24 Apr 2032 10:21:05.090      2619.6163753    
25 Apr 2032 02:10:31.602    25 Apr 2032 02:24:02.591      810.98896202    
25 Apr 2032 03:32:11.772    25 Apr 2032 05:58:58.944      8807.1715415    
25 Apr 2032 07:07:09.108    25 Apr 2032 09:33:55.199      8806.0908593    
26 Apr 2032 02:06:48.059    26 Apr 2032 03:28:35.509      4907.4503626    
26 Apr 2032 04:36:49.724    26 Apr 2032 07:03:31.648      8801.9248382    
26 Apr 2032 08:11:46.672    26 Apr 2032 10:13:53.729      7327.0565713    
27 Apr 2032 02:06:31.020    27 Apr 2032 04:33:08.255      8797.2355525    
27 Apr 2032 05:41:26.949    27 Apr 2032 08:08:03.899      8796.9501456    
27 Apr 2032 09:16:22.486    27 Apr 2032 10:10:22.299      3239.8129730    
28 Apr 2032 01:59:25.946    28 Apr 2032 02:02:41.389      195.44301555    
28 Apr 2032 03:10:59.360    28 Apr 2032 05:37:37.093      8797.7333798    
28 Apr 2032 06:45:55.278    28 Apr 2032 09:12:32.865      8797.5875057    
29 Apr 2032 01:55:40.787    29 Apr 2032 03:07:11.104      4290.3167663    
29 Apr 2032 04:15:29.587    29 Apr 2032 06:42:06.462      8796.8747091    
29 Apr 2032 07:50:24.576    29 Apr 2032 10:03:06.333      7961.7576543    
30 Apr 2032 01:51:58.007    30 Apr 2032 04:11:39.542      8381.5351658    
30 Apr 2032 05:19:57.525    30 Apr 2032 07:46:35.274      8797.7496050    
30 Apr 2032 08:54:53.437    30 Apr 2032 09:59:31.357      3877.9199675    
01 May 2032 02:49:30.081    01 May 2032 05:16:08.109      8798.0275085    
01 May 2032 06:24:25.182    01 May 2032 08:51:03.539      8798.3573793    
02 May 2032 01:44:28.760    02 May 2032 02:45:42.820      3674.0597784    
02 May 2032 03:54:02.332    02 May 2032 06:20:38.867      8796.5356343    
02 May 2032 07:28:58.975    02 May 2032 09:52:10.987      8592.0117795    
03 May 2032 01:40:43.691    03 May 2032 03:50:13.747      7770.0569081    
03 May 2032 04:58:35.673    03 May 2032 07:25:09.591      8793.9177635    
03 May 2032 08:33:31.954    03 May 2032 09:48:32.128      4500.1732692    
04 May 2032 02:28:14.137    04 May 2032 04:54:45.056      8790.9185084    
04 May 2032 06:03:09.841    04 May 2032 08:29:40.590      8790.7491740    
04 May 2032 09:38:05.159    04 May 2032 09:44:53.348      408.18886925    
05 May 2032 01:33:11.848    05 May 2032 02:24:17.347      3065.4995470    
05 May 2032 03:32:40.486    05 May 2032 05:59:12.899      8792.4128670    
05 May 2032 07:07:36.108    05 May 2032 09:34:08.547      8792.4395170    
06 May 2032 01:29:24.415    06 May 2032 03:28:46.654      7162.2389171    
06 May 2032 04:37:10.218    06 May 2032 07:03:42.018      8791.8000359    
06 May 2032 08:12:05.266    06 May 2032 09:37:24.513      5119.2469809    
07 May 2032 02:06:42.361    07 May 2032 04:33:15.052      8792.6912256    
07 May 2032 05:41:38.451    07 May 2032 08:08:10.845      8792.3939398    
07 May 2032 09:16:34.586    07 May 2032 09:33:43.824      1029.2376085    
08 May 2032 01:21:49.904    08 May 2032 02:02:48.922      2459.0179448    
08 May 2032 03:11:12.898    08 May 2032 05:37:44.364      8791.4660983    
08 May 2032 06:46:08.241    08 May 2032 09:12:39.862      8791.6218703    
09 May 2032 01:18:00.119    09 May 2032 03:07:19.553      6559.4347517    
09 May 2032 04:15:46.830    09 May 2032 06:42:15.762      8788.9321495    
09 May 2032 07:50:43.915    09 May 2032 09:26:08.450      5724.5353292    
10 May 2032 01:45:26.890    10 May 2032 04:11:51.715      8784.8250674    
10 May 2032 05:20:23.337    10 May 2032 07:46:47.688      8784.3503038    
10 May 2032 08:55:19.960    10 May 2032 09:22:25.488      1625.5280469    
11 May 2032 01:10:22.820    11 May 2032 01:41:28.275      1865.4542318    
11 May 2032 02:50:04.344    11 May 2032 05:16:24.190      8779.8457813    
11 May 2032 06:25:00.580    11 May 2032 08:51:19.928      8779.3472154    
12 May 2032 01:06:30.780    12 May 2032 02:45:57.218      5966.4384692    
12 May 2032 03:54:33.002    12 May 2032 06:20:52.785      8779.7832320    
12 May 2032 07:29:28.684    12 May 2032 09:14:43.879      6315.1956658    
13 May 2032 01:24:08.054    13 May 2032 03:50:26.700      8778.6461951    
13 May 2032 04:59:03.339    13 May 2032 07:25:22.057      8778.7182043    
13 May 2032 08:33:58.372    13 May 2032 09:10:58.217      2219.8447262    
14 May 2032 00:58:50.533    14 May 2032 01:19:58.771      1268.2374217    
14 May 2032 02:28:34.152    14 May 2032 04:54:54.355      8780.2030195    
14 May 2032 06:03:29.877    14 May 2032 08:29:49.984      8780.1073086    
15 May 2032 00:54:56.398    15 May 2032 02:24:27.229      5370.8315842    
15 May 2032 03:33:02.120    15 May 2032 05:59:22.421      8780.3007495    
15 May 2032 07:07:56.873    15 May 2032 09:03:10.746      6913.8732147    
16 May 2032 01:02:34.485    16 May 2032 03:28:55.568      8781.0832469    
16 May 2032 04:37:30.850    16 May 2032 07:03:51.452      8780.6025867    
16 May 2032 08:12:27.236    16 May 2032 08:59:21.950      2814.7140799    
17 May 2032 00:47:12.999    17 May 2032 00:58:29.929      676.93047698    
17 May 2032 02:07:06.731    17 May 2032 04:33:25.473      8778.7415760    
17 May 2032 05:42:02.349    17 May 2032 08:08:21.060      8778.7117249    
18 May 2032 00:43:16.963    18 May 2032 02:02:59.869      4782.9060365    
18 May 2032 03:11:38.690    18 May 2032 05:37:55.495      8776.8049521    
18 May 2032 06:46:34.321    18 May 2032 08:51:29.017      7494.6957935    
19 May 2032 00:41:07.890    19 May 2032 03:07:26.585      8778.6947220    
19 May 2032 04:16:02.505    19 May 2032 06:42:21.766      8779.2606714    
19 May 2032 07:50:57.359    19 May 2032 08:47:36.694      3399.3350879    
20 May 2032 00:35:30.185    20 May 2032 00:36:58.597      88.411603658    
20 May 2032 01:45:33.448    20 May 2032 04:11:53.824      8780.3761011    
20 May 2032 05:20:28.226    20 May 2032 07:46:48.930      8780.7043664    
21 May 2032 00:31:32.459    21 May 2032 01:41:24.239      4191.7802993    
21 May 2032 02:49:55.646    21 May 2032 05:16:19.554      8783.9084070    
21 May 2032 06:24:50.856    21 May 2032 08:39:38.672      8087.8164675    
22 May 2032 00:27:37.108    22 May 2032 02:45:51.449      8294.3414109    
22 May 2032 03:54:21.462    22 May 2032 06:20:46.505      8785.0432605    
22 May 2032 07:29:15.979    22 May 2032 08:35:42.514      3986.5352574    
23 May 2032 01:23:52.269    23 May 2032 03:50:18.771      8786.5017984    
23 May 2032 04:58:48.530    23 May 2032 07:25:14.597      8786.0673088    
24 May 2032 00:19:42.865    24 May 2032 01:19:53.204      3610.3385929    
24 May 2032 02:28:25.257    24 May 2032 04:54:48.780      8783.5230974    
24 May 2032 06:03:21.043    24 May 2032 08:27:39.707      8658.6636553    
25 May 2032 00:15:45.133    25 May 2032 02:24:23.614      7718.4803541    
25 May 2032 03:32:59.119    25 May 2032 05:59:19.414      8780.2947057    
25 May 2032 07:07:55.282    25 May 2032 08:23:39.511      4544.2289804    
26 May 2032 01:02:31.352    26 May 2032 03:28:51.505      8780.1530361    
26 May 2032 04:37:26.303    26 May 2032 07:03:46.783      8780.4791621    
26 May 2032 08:12:21.470    26 May 2032 08:19:39.653      438.18304623    
27 May 2032 00:07:48.171    27 May 2032 00:58:24.247      3036.0756345    
27 May 2032 02:06:59.557    27 May 2032 04:33:19.641      8780.0838709    
27 May 2032 05:41:54.813    27 May 2032 08:08:14.908      8780.0947942    
28 May 2032 00:03:48.039    28 May 2032 02:02:50.625      7142.5863940    
28 May 2032 03:11:23.938    28 May 2032 05:37:45.961      8782.0231652    
28 May 2032 06:46:19.283    28 May 2032 08:11:27.789      5108.5067033    
29 May 2032 00:40:56.225    29 May 2032 03:07:18.108      8781.8828503    
29 May 2032 04:15:50.958    29 May 2032 06:42:13.157      8782.1991927    
29 May 2032 07:50:45.505    29 May 2032 08:07:25.923      1000.4183082    
29 May 2032 23:55:48.366    30 May 2032 00:36:49.086      2460.7207224    
30 May 2032 01:45:20.707    30 May 2032 04:11:44.673      8783.9667607    
30 May 2032 05:20:16.679    30 May 2032 07:46:40.347      8783.6677858    
30 May 2032 23:51:45.873    31 May 2032 01:41:18.244      6572.3704452    
31 May 2032 02:49:51.887    31 May 2032 05:16:13.616      8781.7286203    
31 May 2032 06:24:47.255    31 May 2032 07:59:07.459      5660.2039170    
01 Jun 2032 00:19:26.274    01 Jun 2032 02:45:46.899      8780.6246533    
01 Jun 2032 03:54:22.248    01 Jun 2032 06:20:42.467      8780.2190605    
01 Jun 2032 07:29:17.973    01 Jun 2032 07:55:03.329      1545.3564910    
01 Jun 2032 23:43:43.418    02 Jun 2032 00:15:18.055      1894.6370410    
02 Jun 2032 01:23:51.335    02 Jun 2032 03:50:12.901      8781.5659131    
02 Jun 2032 04:58:45.504    02 Jun 2032 07:25:07.791      8782.2867275    
02 Jun 2032 23:39:38.670    03 Jun 2032 01:19:43.322      6004.6520142    
03 Jun 2032 02:28:13.907    03 Jun 2032 04:54:38.367      8784.4598518    
03 Jun 2032 06:03:08.446    03 Jun 2032 07:46:38.671      6210.2250448    
03 Jun 2032 23:57:38.327    04 Jun 2032 02:24:06.967      8788.6401663    
04 Jun 2032 03:32:32.479    04 Jun 2032 05:59:01.851      8789.3721070    
04 Jun 2032 07:07:26.880    04 Jun 2032 07:42:31.983      2105.1031796    
04 Jun 2032 23:31:33.324    04 Jun 2032 23:53:36.898      1323.5734064    
05 Jun 2032 01:01:59.900    05 Jun 2032 03:28:31.704      8791.8040768    
05 Jun 2032 04:36:53.933    05 Jun 2032 07:03:26.399      8792.4660835    
05 Jun 2032 23:27:26.495    06 Jun 2032 00:58:00.317      5433.8221926    
06 Jun 2032 02:06:18.803    06 Jun 2032 04:32:55.514      8796.7103926    
06 Jun 2032 05:41:14.016    06 Jun 2032 07:34:01.619      6767.6029535    
06 Jun 2032 23:35:51.253    07 Jun 2032 02:02:27.441      8796.1883764    
07 Jun 2032 03:10:46.293    07 Jun 2032 05:37:22.588      8796.2947497    
07 Jun 2032 06:45:41.263    07 Jun 2032 07:29:52.074      2650.8111386    
07 Jun 2032 23:19:18.148    07 Jun 2032 23:31:59.184      761.03581314    
08 Jun 2032 00:40:18.631    08 Jun 2032 03:06:54.715      8796.0831655    
08 Jun 2032 04:15:14.503    08 Jun 2032 06:41:50.205      8795.7018101    
08 Jun 2032 23:15:09.464    09 Jun 2032 00:36:25.715      4876.2507236    
09 Jun 2032 01:44:44.127    09 Jun 2032 04:11:20.523      8796.3965798    
09 Jun 2032 05:19:38.334    09 Jun 2032 07:21:16.533      7298.1983084    
09 Jun 2032 23:14:12.438    10 Jun 2032 01:40:50.875      8798.4367210    
10 Jun 2032 02:49:07.526    10 Jun 2032 05:15:46.000      8798.4744590    
10 Jun 2032 06:24:02.416    10 Jun 2032 07:17:03.865      3181.4484189    
10 Jun 2032 23:06:58.008    10 Jun 2032 23:10:20.246      202.23806896    
11 Jun 2032 00:18:33.947    11 Jun 2032 02:45:15.071      8801.1239788    
11 Jun 2032 03:53:28.327    11 Jun 2032 06:20:09.994      8801.6670809    
11 Jun 2032 23:02:47.716    12 Jun 2032 00:14:45.502      4317.7857345    
12 Jun 2032 01:22:57.849    12 Jun 2032 03:49:40.442      8802.5928604    
12 Jun 2032 04:57:52.328    12 Jun 2032 07:08:23.692      7831.3641727    
12 Jun 2032 22:58:40.315    13 Jun 2032 01:19:09.383      8429.0674819    
13 Jun 2032 02:27:18.633    13 Jun 2032 04:54:04.572      8805.9392131    
13 Jun 2032 06:02:13.979    13 Jun 2032 07:04:07.706      3713.7276601    
13 Jun 2032 23:56:52.423    14 Jun 2032 02:23:36.732      8804.3093279    
14 Jun 2032 03:31:47.686    14 Jun 2032 05:58:31.899      8804.2127898    
14 Jun 2032 22:50:21.397    14 Jun 2032 23:53:08.261      3766.8636422    
15 Jun 2032 01:01:20.288    15 Jun 2032 03:28:03.736      8803.4482980    
15 Jun 2032 04:36:16.193    15 Jun 2032 06:55:23.440      8347.2465404    
15 Jun 2032 22:46:11.840    16 Jun 2032 00:57:34.469      7882.6291343    
16 Jun 2032 02:05:45.919    16 Jun 2032 04:32:29.138      8803.2184222    
16 Jun 2032 05:40:39.881    16 Jun 2032 06:51:04.034      4224.1528298    
16 Jun 2032 23:35:11.964    17 Jun 2032 02:01:58.165      8806.2008492    
17 Jun 2032 03:10:06.650    17 Jun 2032 05:36:53.069      8806.4195936    
17 Jun 2032 06:45:01.151    17 Jun 2032 06:46:43.807      102.65546562    
17 Jun 2032 22:37:50.663    17 Jun 2032 23:31:25.986      3215.3228737    
18 Jun 2032 00:39:30.008    18 Jun 2032 03:06:20.446      8810.4374002    
18 Jun 2032 04:14:23.618    18 Jun 2032 06:41:14.979      8811.3618747    
18 Jun 2032 22:33:38.965    19 Jun 2032 00:35:48.575      7329.6106996    
19 Jun 2032 01:43:48.491    19 Jun 2032 04:10:43.154      8814.6633152    
19 Jun 2032 05:18:42.238    19 Jun 2032 06:37:53.340      4751.1022850    
19 Jun 2032 23:13:08.973    20 Jun 2032 01:40:09.433      8820.4605712    
20 Jun 2032 02:48:02.868    20 Jun 2032 05:15:04.109      8821.2412687    
20 Jun 2032 06:22:57.148    20 Jun 2032 06:33:31.891      634.74288960    
20 Jun 2032 22:25:15.695    20 Jun 2032 23:09:38.774      2663.0786880    
21 Jun 2032 00:17:31.097    21 Jun 2032 02:44:33.610      8822.5132355    
21 Jun 2032 03:52:25.554    21 Jun 2032 06:19:28.368      8822.8147703    
21 Jun 2032 22:21:01.942    22 Jun 2032 00:14:02.592      6780.6495955    
22 Jun 2032 01:21:53.061    22 Jun 2032 03:48:57.682      8824.6204309    
22 Jun 2032 04:56:48.251    22 Jun 2032 06:24:36.150      5267.8992335    
22 Jun 2032 22:51:21.406    23 Jun 2032 01:18:26.719      8825.3131248    
23 Jun 2032 02:26:15.015    23 Jun 2032 04:53:21.114      8826.0997461    
23 Jun 2032 06:01:08.470    23 Jun 2032 06:20:13.444      1144.9739634    
23 Jun 2032 22:12:36.708    23 Jun 2032 22:47:53.780      2117.0724003    
23 Jun 2032 23:55:38.096    24 Jun 2032 02:22:48.532      8830.4363337    
24 Jun 2032 03:30:32.481    24 Jun 2032 05:57:43.262      8830.7807809    
24 Jun 2032 22:08:21.055    24 Jun 2032 23:52:15.547      6234.4923801    
25 Jun 2032 00:59:54.970    25 Jun 2032 03:27:09.865      8834.8948396    
25 Jun 2032 04:34:48.403    25 Jun 2032 06:11:12.989      5784.5854989    
25 Jun 2032 22:29:18.989    26 Jun 2032 00:56:37.465      8838.4760142    
26 Jun 2032 02:04:13.211    26 Jun 2032 04:31:32.056      8838.8453827    
26 Jun 2032 05:39:07.180    26 Jun 2032 06:06:48.921      1661.7411406    
26 Jun 2032 21:59:53.929    26 Jun 2032 22:26:03.832      1569.9029180    
26 Jun 2032 23:33:34.755    27 Jun 2032 02:00:58.309      8843.5542575    
27 Jun 2032 03:08:28.724    27 Jun 2032 05:35:52.946      8844.2220389    
27 Jun 2032 21:55:36.578    27 Jun 2032 23:30:27.785      5691.2072888    
28 Jun 2032 00:37:58.540    28 Jun 2032 03:05:22.720      8844.1804768    
28 Jun 2032 04:12:53.424    28 Jun 2032 05:57:44.389      6290.9644108    
28 Jun 2032 22:07:27.591    29 Jun 2032 00:34:52.099      8844.5082983    
29 Jun 2032 01:42:22.980    29 Jun 2032 04:09:47.253      8844.2729005    
29 Jun 2032 05:17:18.545    29 Jun 2032 05:53:18.831      2160.2862249    
29 Jun 2032 21:47:07.583    29 Jun 2032 22:04:22.429      1034.8463867    
29 Jun 2032 23:11:54.209    30 Jun 2032 01:39:17.038      8842.8286510    
