REPORTS/eclipses_1500_01.txt

Spacecraft: DALA_SatFine

Start Time (UTC)            Stop Time (UTC)               Duration (s)    Occ Body        Type        Event Number  Total Duration (s)
02 Oct 2031 04:04:57.716    02 Oct 2031 04:48:38.967      2621.2508798    Jupiter         Umbra       1             2621.2508798
02 Oct 2031 07:39:52.724    02 Oct 2031 08:23:36.027      2623.3029891    Jupiter         Umbra       2             2623.3029891
02 Oct 2031 11:14:35.269    02 Oct 2031 11:14:47.850      12.581394869    Jupiter         Penumbra    3             2638.1125930
02 Oct 2031 11:14:47.850    02 Oct 2031 11:58:33.382      2625.5311982    Jupiter         Umbra       3             2638.1125930
02 Oct 2031 14:49:43.028    02 Oct 2031 15:33:30.730      2627.7019191    Jupiter         Umbra       4             2627.7019191
02 Oct 2031 18:24:38.168    02 Oct 2031 19:08:27.739      2629.5708614    Jupiter         Umbra       5             2629.5708614
02 Oct 2031 21:59:33.182    02 Oct 2031 22:43:24.131      2630.9489934    Jupiter         Umbra       6             2630.9489934
03 Oct 2031 01:34:28.007    03 Oct 2031 02:18:19.760      2631.7531689    Jupiter         Umbra       7             2631.7531689
03 Oct 2031 05:09:22.621    03 Oct 2031 05:53:14.647      2632.0260087    Jupiter         Umbra       8             2632.0260087
03 Oct 2031 08:44:17.046    03 Oct 2031 09:28:08.968      2631.9215924    Jupiter         Umbra       9             2631.9215924
03 Oct 2031 12:19:11.343    03 Oct 2031 13:03:03.006      2631.6631818    Jupiter         Umbra       10            2631.6631818
03 Oct 2031 15:54:05.593    03 Oct 2031 16:37:57.079      2631.4860806    Jupiter         Umbra       11            2631.4860806
03 Oct 2031 19:28:59.879    03 Oct 2031 20:12:51.459      2631.5800394    Jupiter         Umbra       12            2631.5800394
03 Oct 2031 23:03:54.265    03 Oct 2031 23:47:46.309      2632.0442437    Jupiter         Umbra       13            2632.0442437
04 Oct 2031 02:38:48.779    04 Oct 2031 03:22:41.690      2632.9112074    Jupiter         Umbra       14            2632.9112074
04 Oct 2031 06:13:43.407    04 Oct 2031 06:57:37.337      2633.9294961    Jupiter         Umbra       15            2633.9294961
04 Oct 2031 09:48:38.102    04 Oct 2031 10:32:33.157      2635.0548936    Jupiter         Umbra       16            2635.0548936
04 Oct 2031 13:23:32.796    04 Oct 2031 14:07:28.852      2636.0567622    Jupiter         Umbra       17            2636.0567622
04 Oct 2031 16:58:27.423    04 Oct 2031 17:42:24.228      2636.8058352    Jupiter         Umbra       18            2636.8058352
04 Oct 2031 20:33:21.944    04 Oct 2031 21:17:19.216      2637.2724774    Jupiter         Umbra       19            2637.2724774
05 Oct 2031 00:08:16.358    05 Oct 2031 00:52:13.896      2637.5385435    Jupiter         Umbra       20            2637.5385435
05 Oct 2031 03:43:10.703    05 Oct 2031 04:27:08.481      2637.7776867    Jupiter         Umbra       21            2637.7776867
05 Oct 2031 07:18:05.049    05 Oct 2031 08:02:03.258      2638.2093386    Jupiter         Umbra       22            2638.2093386
05 Oct 2031 10:52:59.478    05 Oct 2031 11:36:58.520      2639.0414102    Jupiter         Umbra       23            2639.0414102
05 Oct 2031 14:27:54.067    05 Oct 2031 15:11:54.482      2640.4153472    Jupiter         Umbra       24            2640.4153472
05 Oct 2031 18:02:48.862    05 Oct 2031 18:46:51.229      2642.3667140    Jupiter         Umbra       25            2642.3667140
05 Oct 2031 21:37:43.870    05 Oct 2031 22:21:48.680      2644.8100729    Jupiter         Umbra       26            2644.8100729
06 Oct 2031 01:12:39.053    06 Oct 2031 01:56:46.608      2647.5553149    Jupiter         Umbra       27            2647.5553149
06 Oct 2031 04:47:34.335    06 Oct 2031 05:31:44.688      2650.3536005    Jupiter         Umbra       28            2650.3536005
06 Oct 2031 08:22:29.624    06 Oct 2031 09:06:42.585      2652.9609748    Jupiter         Umbra       29            2652.9609748
06 Oct 2031 11:57:24.837    06 Oct 2031 12:41:40.038      2655.2011250    Jupiter         Umbra       30            2655.2011250
06 Oct 2031 15:32:19.916    06 Oct 2031 16:16:36.925      2657.0083603    Jupiter         Umbra       31            2657.0083603
06 Oct 2031 19:07:14.849    06 Oct 2031 19:51:33.287      2658.4381410    Jupiter         Umbra       32            2658.4381410
06 Oct 2031 22:42:09.663    06 Oct 2031 23:26:29.307      2659.6440242    Jupiter         Umbra       33            2659.6440242
07 Oct 2031 02:17:04.420    07 Oct 2031 03:01:25.251      2660.8314417    Jupiter         Umbra       34            2660.8314417
07 Oct 2031 05:51:59.194    07 Oct 2031 06:36:21.394      2662.1998530    Jupiter         Umbra       35            2662.1998530
07 Oct 2031 09:26:54.055    07 Oct 2031 10:11:17.944      2663.8883773    Jupiter         Umbra       36            2663.8883773
07 Oct 2031 13:01:49.047    07 Oct 2031 13:46:14.985      2665.9374232    Jupiter         Umbra       37            2665.9374232
07 Oct 2031 16:36:44.176    07 Oct 2031 17:21:12.451      2668.2753022    Jupiter         Umbra       38            2668.2753022
07 Oct 2031 20:11:39.407    07 Oct 2031 20:56:10.143      2670.7361594    Jupiter         Umbra       39            2670.7361594
07 Oct 2031 23:46:34.673    08 Oct 2031 00:31:07.779      2673.1062947    Jupiter         Umbra       40            2673.1062947
08 Oct 2031 03:21:29.896    08 Oct 2031 04:06:05.082      2675.1858209    Jupiter         Umbra       41            2675.1858209
08 Oct 2031 06:56:25.008    08 Oct 2031 07:41:01.855      2676.8466731    Jupiter         Umbra       42            2676.8466731
08 Oct 2031 10:31:19.971    08 Oct 2031 11:15:58.040      2678.0688042    Jupiter         Umbra       43            2678.0688042
08 Oct 2031 14:06:14.785    08 Oct 2031 14:50:53.729      2678.9437360    Jupiter         Umbra       44            2678.9437360
08 Oct 2031 17:41:09.491    08 Oct 2031 18:25:49.137      2679.6461210    Jupiter         Umbra       45            2679.6461210
08 Oct 2031 21:16:04.155    08 Oct 2031 22:00:44.539      2680.3843858    Jupiter         Umbra       46            2680.3843858
09 Oct 2031 00:50:58.850    09 Oct 2031 01:35:40.194      2681.3437047    Jupiter         Umbra       47            2681.3437047
09 Oct 2031 04:25:53.640    09 Oct 2031 05:10:36.274      2682.6335281    Jupiter         Umbra       48            2682.6335281
09 Oct 2031 08:00:48.556    09 Oct 2031 08:45:32.809      2684.2535813    Jupiter         Umbra       49            2684.2535813
09 Oct 2031 11:35:43.588    09 Oct 2031 12:20:29.676      2686.0881676    Jupiter         Umbra       50            2686.0881676
09 Oct 2031 15:10:38.686    09 Oct 2031 15:55:26.616      2687.9306152    Jupiter         Umbra       51            2687.9306152
09 Oct 2031 18:45:33.769    09 Oct 2031 19:30:23.305      2689.5354376    Jupiter         Umbra       52            2689.5354376
09 Oct 2031 22:20:28.749    09 Oct 2031 23:05:19.434      2690.6844086    Jupiter         Umbra       53            2690.6844086
10 Oct 2031 01:55:23.552    10 Oct 2031 02:40:14.798      2691.2452660    Jupiter         Umbra       54            2691.2452660
10 Oct 2031 05:30:18.138    10 Oct 2031 06:15:09.343      2691.2054226    Jupiter         Umbra       55            2691.2054226
10 Oct 2031 09:05:12.509    10 Oct 2031 09:50:03.182      2690.6724593    Jupiter         Umbra       56            2690.6724593
10 Oct 2031 12:40:06.710    10 Oct 2031 13:24:56.554      2689.8434751    Jupiter         Umbra       57            2689.8434751
10 Oct 2031 16:15:00.813    10 Oct 2031 16:59:49.766      2688.9534735    Jupiter         Umbra       58            2688.9534735
10 Oct 2031 19:49:54.900    10 Oct 2031 20:34:43.117      2688.2170267    Jupiter         Umbra       59            2698.9065577
10 Oct 2031 20:34:43.117    10 Oct 2031 20:34:53.807      10.689531011    Jupiter         Penumbra    59            2698.9065577
10 Oct 2031 23:24:36.827    10 Oct 2031 23:24:49.044      12.217664067    Jupiter         Penumbra    60            2699.9947093
10 Oct 2031 23:24:49.044    11 Oct 2031 00:09:36.822      2687.7770453    Jupiter         Umbra       60            2699.9947093
11 Oct 2031 02:59:43.289    11 Oct 2031 03:44:30.961      2687.6718061    Jupiter         Umbra       61            2687.6718061
11 Oct 2031 06:34:37.639    11 Oct 2031 07:19:25.469      2687.8300600    Jupiter         Umbra       62            2687.8300600
11 Oct 2031 10:09:32.061    11 Oct 2031 10:54:20.158      2688.0975343    Jupiter         Umbra       63            2688.0975343
11 Oct 2031 13:44:26.495    11 Oct 2031 14:29:14.783      2688.2885090    Jupiter         Umbra       64            2688.2885090
11 Oct 2031 17:19:20.875    11 Oct 2031 18:04:09.123      2688.2482118    Jupiter         Umbra       65            2688.2482118
11 Oct 2031 20:54:15.151    11 Oct 2031 21:39:03.056      2687.9052293    Jupiter         Umbra       66            2687.9052293
12 Oct 2031 00:29:09.305    12 Oct 2031 01:13:56.602      2687.2975839    Jupiter         Umbra       67            2687.2975839
12 Oct 2031 04:04:03.360    12 Oct 2031 04:48:49.926      2686.5661059    Jupiter         Umbra       68            2686.5661059
12 Oct 2031 07:38:57.374    12 Oct 2031 08:23:43.293      2685.9189131    Jupiter         Umbra       69            2685.9189131
12 Oct 2031 11:13:51.427    12 Oct 2031 11:58:37.005      2685.5781309    Jupiter         Umbra       70            2685.5781309
12 Oct 2031 14:48:45.600    12 Oct 2031 15:33:31.323      2685.7229947    Jupiter         Umbra       71            2685.7229947
12 Oct 2031 18:23:39.955    12 Oct 2031 19:08:26.397      2686.4425788    Jupiter         Umbra       72            2686.4425788
12 Oct 2031 21:58:34.519    12 Oct 2031 22:43:22.227      2687.7087627    Jupiter         Umbra       73            2687.7087627
13 Oct 2031 01:33:29.274    13 Oct 2031 02:18:18.653      2689.3787886    Jupiter         Umbra       74            2689.3787886
13 Oct 2031 05:08:24.164    13 Oct 2031 05:53:15.393      2691.2287597    Jupiter         Umbra       75            2691.2287597
13 Oct 2031 08:43:19.103    13 Oct 2031 09:28:12.114      2693.0113196    Jupiter         Umbra       76            2693.0113196
13 Oct 2031 12:18:14.003    13 Oct 2031 13:03:08.523      2694.5202394    Jupiter         Umbra       77            2694.5202394
13 Oct 2031 15:53:08.797    13 Oct 2031 16:38:04.441      2695.6432996    Jupiter         Umbra       78            2695.6432996
13 Oct 2031 19:28:03.454    13 Oct 2031 20:12:59.841      2696.3867042    Jupiter         Umbra       79            2696.3867042
13 Oct 2031 23:02:57.984    13 Oct 2031 23:47:54.850      2696.8660827    Jupiter         Umbra       80            2696.8660827
14 Oct 2031 02:37:52.436    14 Oct 2031 03:22:49.705      2697.2696952    Jupiter         Umbra       81            2697.2696952
14 Oct 2031 06:12:46.881    14 Oct 2031 06:57:44.686      2697.8050744    Jupiter         Umbra       82            2697.8050744
14 Oct 2031 09:47:41.394    14 Oct 2031 10:32:40.037      2698.6425145    Jupiter         Umbra       83            2698.6425145
14 Oct 2031 13:22:36.032    14 Oct 2031 14:07:35.901      2699.8687161    Jupiter         Umbra       84            2699.8687161
14 Oct 2031 16:57:30.819    14 Oct 2031 17:42:32.281      2701.4619338    Jupiter         Umbra       85            2701.4619338
14 Oct 2031 20:32:25.738    14 Oct 2031 21:17:29.034      2703.2962285    Jupiter         Umbra       86            2703.2962285
15 Oct 2031 00:07:20.736    15 Oct 2031 00:52:25.912      2705.1761205    Jupiter         Umbra       87            2705.1761205
15 Oct 2031 03:42:15.738    15 Oct 2031 04:27:22.631      2706.8931192    Jupiter         Umbra       88            2706.8931192
15 Oct 2031 07:17:10.670    15 Oct 2031 08:02:18.957      2708.2867283    Jupiter         Umbra       89            2708.2867283
15 Oct 2031 10:52:05.480    15 Oct 2031 11:37:14.771      2709.2909744    Jupiter         Umbra       90            2709.2909744
15 Oct 2031 14:27:00.154    15 Oct 2031 15:12:10.106      2709.9516358    Jupiter         Umbra       91            2709.9516358
15 Oct 2031 18:01:54.715    15 Oct 2031 18:47:05.126      2710.4110605    Jupiter         Umbra       92            2710.4110605
15 Oct 2031 21:36:49.220    15 Oct 2031 22:22:00.088      2710.8675758    Jupiter         Umbra       93            2710.8675758
16 Oct 2031 01:11:43.743    16 Oct 2031 01:56:55.264      2711.5208909    Jupiter         Umbra       94            2711.5208909
16 Oct 2031 04:46:38.354    16 Oct 2031 05:31:50.871      2712.5169357    Jupiter         Umbra       95            2712.5169357
16 Oct 2031 08:21:33.100    16 Oct 2031 09:06:47.006      2713.9053353    Jupiter         Umbra       96            2713.9053353
16 Oct 2031 11:56:27.991    16 Oct 2031 12:41:43.611      2715.6204173    Jupiter         Umbra       97            2715.6204173
16 Oct 2031 15:31:22.992    16 Oct 2031 16:16:40.484      2717.4922331    Jupiter         Umbra       98            2717.4922331
16 Oct 2031 19:06:18.035    16 Oct 2031 19:51:37.322      2719.2875557    Jupiter         Umbra       99            2719.2875557
16 Oct 2031 22:41:13.032    16 Oct 2031 23:26:33.803      2720.7716228    Jupiter         Umbra       100           2720.7716228
17 Oct 2031 02:16:07.899    17 Oct 2031 03:01:29.670      2721.7708397    Jupiter         Umbra       101           2721.7708397
17 Oct 2031 05:51:02.581    17 Oct 2031 06:36:24.799      2722.2180172    Jupiter         Umbra       102           2722.2180172
17 Oct 2031 09:25:57.062    17 Oct 2031 10:11:19.229      2722.1671531    Jupiter         Umbra       103           2722.1671531
17 Oct 2031 13:00:51.366    17 Oct 2031 13:46:13.142      2721.7759361    Jupiter         Umbra       104           2721.7759361
17 Oct 2031 16:35:45.557    17 Oct 2031 17:21:06.820      2721.2626280    Jupiter         Umbra       105           2721.2626280
17 Oct 2031 20:10:39.713    17 Oct 2031 20:56:00.563      2720.8506482    Jupiter         Umbra       106           2720.8506482
17 Oct 2031 23:45:33.911    18 Oct 2031 00:30:54.625      2720.7136751    Jupiter         Umbra       107           2720.7136751
18 Oct 2031 03:20:28.210    18 Oct 2031 04:05:49.144      2720.9338635    Jupiter         Umbra       108           2720.9338635
18 Oct 2031 06:55:22.629    18 Oct 2031 07:40:44.114      2721.4842629    Jupiter         Umbra       109           2721.4842629
18 Oct 2031 10:30:17.152    18 Oct 2031 11:15:39.393      2722.2416705    Jupiter         Umbra       110           2722.2416705
18 Oct 2031 14:05:11.726    18 Oct 2031 14:50:34.754      2723.0282075    Jupiter         Umbra       111           2723.0282075
18 Oct 2031 17:40:06.285    18 Oct 2031 18:25:29.955      2723.6703900    Jupiter         Umbra       112           2723.6703900
18 Oct 2031 21:15:00.770    18 Oct 2031 22:00:24.827      2724.0570631    Jupiter         Umbra       113           2724.0570631
19 Oct 2031 00:49:55.149    19 Oct 2031 01:35:19.326      2724.1773357    Jupiter         Umbra       114           2724.1773357
19 Oct 2031 04:24:37.439    19 Oct 2031 04:24:49.426      11.986803822    Jupiter         Penumbra    115           2736.1145012
19 Oct 2031 04:24:49.426    19 Oct 2031 05:10:13.554      2724.1276974    Jupiter         Umbra       115           2736.1145012
19 Oct 2031 07:59:43.645    19 Oct 2031 08:45:07.734      2724.0888737    Jupiter         Umbra       116           2724.0888737
19 Oct 2031 11:34:37.878    19 Oct 2031 12:20:02.158      2724.2793399    Jupiter         Umbra       117           2724.2793399
19 Oct 2031 15:09:32.208    19 Oct 2031 15:54:57.108      2724.8997838    Jupiter         Umbra       118           2724.8997838
19 Oct 2031 18:44:26.706    19 Oct 2031 19:29:52.787      2726.0809859    Jupiter         Umbra       119           2726.0809859
19 Oct 2031 22:19:21.416    19 Oct 2031 23:04:49.262      2727.8466070    Jupiter         Umbra       120           2727.8466070
20 Oct 2031 01:54:16.338    20 Oct 2031 02:39:46.440      2730.1021577    Jupiter         Umbra       121           2730.1021577
20 Oct 2031 05:29:11.431    20 Oct 2031 06:14:44.087      2732.6552726    Jupiter         Umbra       122           2732.6552726
20 Oct 2031 09:04:06.620    20 Oct 2031 09:49:41.884      2735.2635660    Jupiter         Umbra       123           2735.2635660
20 Oct 2031 12:39:01.816    20 Oct 2031 13:24:39.513      2737.6974689    Jupiter         Umbra       124           2748.0480471
20 Oct 2031 13:24:39.513    20 Oct 2031 13:24:49.864      10.350578162    Jupiter         Penumbra    124           2748.0480471
20 Oct 2031 16:13:56.939    20 Oct 2031 16:59:36.739      2739.7996389    Jupiter         Umbra       125           2739.7996389
20 Oct 2031 19:48:51.942    20 Oct 2031 20:34:33.464      2741.5222231    Jupiter         Umbra       126           2751.8502255
20 Oct 2031 20:34:33.464    20 Oct 2031 20:34:43.792      10.328002344    Jupiter         Penumbra    126           2751.8502255
20 Oct 2031 23:23:46.817    21 Oct 2031 00:09:29.749      2742.9315546    Jupiter         Umbra       127           2742.9315546
21 Oct 2031 02:58:41.597    21 Oct 2031 03:44:25.781      2744.1839574    Jupiter         Umbra       128           2744.1839574
21 Oct 2031 06:33:36.343    21 Oct 2031 07:19:21.822      2745.4786038    Jupiter         Umbra       129           2745.4786038
21 Oct 2031 10:08:31.129    21 Oct 2031 10:54:18.131      2747.0024067    Jupiter         Umbra       130           2747.0024067
21 Oct 2031 13:43:26.020    21 Oct 2031 14:29:14.897      2748.8779774    Jupiter         Umbra       131           2748.8779774
21 Oct 2031 17:18:21.052    21 Oct 2031 18:04:12.181      2751.1289164    Jupiter         Umbra       132           2751.1289164
21 Oct 2031 20:53:16.226    21 Oct 2031 21:39:09.897      2753.6704806    Jupiter         Umbra       133           2753.6704806
22 Oct 2031 00:28:11.502    22 Oct 2031 01:14:07.833      2756.3311789    Jupiter         Umbra       134           2756.3311789
22 Oct 2031 04:03:06.812    22 Oct 2031 04:49:05.713      2758.9010692    Jupiter         Umbra       135           2758.9010692
22 Oct 2031 07:38:02.079    22 Oct 2031 08:24:03.271      2761.1924814    Jupiter         Umbra       136           2761.1924814
22 Oct 2031 11:12:57.240    22 Oct 2031 11:59:00.334      2763.0939371    Jupiter         Umbra       137           2763.0939371
22 Oct 2031 14:47:52.264    22 Oct 2031 15:33:56.864      2764.6004272    Jupiter         Umbra       138           2764.6004272
22 Oct 2031 18:22:47.156    22 Oct 2031 19:08:52.968      2765.8120613    Jupiter         Umbra       139           2765.8120613
22 Oct 2031 21:57:41.961    22 Oct 2031 22:43:48.865      2766.9041979    Jupiter         Umbra       140           2766.9041979
23 Oct 2031 01:32:36.745    23 Oct 2031 02:18:44.824      2768.0783404    Jupiter         Umbra       141           2768.0783404
23 Oct 2031 05:07:31.580    23 Oct 2031 05:53:41.086      2769.5063080    Jupiter         Umbra       142           2769.5063080
23 Oct 2031 08:42:26.523    23 Oct 2031 09:28:37.804      2771.2810023    Jupiter         Umbra       143           2771.2810023
23 Oct 2031 12:17:21.598    23 Oct 2031 13:03:34.985      2773.3864538    Jupiter         Umbra       144           2773.3864538
23 Oct 2031 15:52:16.791    23 Oct 2031 16:38:32.486      2775.6944031    Jupiter         Umbra       145           2775.6944031
23 Oct 2031 19:27:12.046    23 Oct 2031 20:13:30.039      2777.9928794    Jupiter         Umbra       146           2777.9928794
23 Oct 2031 23:02:07.281    23 Oct 2031 23:48:27.321      2780.0405335    Jupiter         Umbra       147           2780.0405335
24 Oct 2031 02:37:02.409    24 Oct 2031 03:23:24.040      2781.6303873    Jupiter         Umbra       148           2781.6303873
24 Oct 2031 06:11:57.363    24 Oct 2031 06:58:20.006      2782.6438072    Jupiter         Umbra       149           2782.6438072
24 Oct 2031 09:46:52.106    24 Oct 2031 10:33:15.185      2783.0792479    Jupiter         Umbra       150           2783.0792479
24 Oct 2031 13:21:46.647    24 Oct 2031 14:08:09.695      2783.0486229    Jupiter         Umbra       151           2783.0486229
24 Oct 2031 16:56:41.031    24 Oct 2031 17:43:03.775      2782.7445314    Jupiter         Umbra       152           2782.7445314
24 Oct 2031 20:31:35.329    24 Oct 2031 21:17:57.719      2782.3898330    Jupiter         Umbra       153           2782.3898330
25 Oct 2031 00:06:29.619    25 Oct 2031 00:52:51.802      2782.1823828    Jupiter         Umbra       154           2782.1823828
25 Oct 2031 03:41:23.967    25 Oct 2031 04:27:46.212      2782.2454080    Jupiter         Umbra       155           2782.2454080
25 Oct 2031 07:16:18.408    25 Oct 2031 08:02:41.007      2782.5988410    Jupiter         Umbra       156           2782.5988410
25 Oct 2031 10:51:12.940    25 Oct 2031 11:37:36.099      2783.1585512    Jupiter         Umbra       157           2783.1585512
25 Oct 2031 14:26:07.525    25 Oct 2031 15:12:31.291      2783.7658955    Jupiter         Umbra       158           2783.7658955
25 Oct 2031 18:01:02.102    25 Oct 2031 18:47:26.342      2784.2408150    Jupiter         Umbra       159           2784.2408150
25 Oct 2031 21:35:56.607    25 Oct 2031 22:22:21.049      2784.4421862    Jupiter         Umbra       160           2784.4421862
26 Oct 2031 01:10:50.996    26 Oct 2031 01:57:15.311      2784.3153978    Jupiter         Umbra       161           2784.3153978
26 Oct 2031 04:45:45.258    26 Oct 2031 05:32:09.171      2783.9130463    Jupiter         Umbra       162           2783.9130463
26 Oct 2031 08:20:39.421    26 Oct 2031 09:07:02.805      2783.3844326    Jupiter         Umbra       163           2783.3844326
26 Oct 2031 11:55:33.545    26 Oct 2031 12:41:56.483      2782.9386513    Jupiter         Umbra       164           2782.9386513
26 Oct 2031 15:30:27.709    26 Oct 2031 16:16:50.501      2782.7921857    Jupiter         Umbra       165           2782.7921857
26 Oct 2031 19:05:21.991    26 Oct 2031 19:51:45.105      2783.1140131    Jupiter         Umbra       166           2783.1140131
26 Oct 2031 22:40:16.449    26 Oct 2031 23:26:40.430      2783.9806901    Jupiter         Umbra       167           2783.9806901
27 Oct 2031 02:15:11.103    27 Oct 2031 03:01:36.456      2785.3529122    Jupiter         Umbra       168           2785.3529122
27 Oct 2031 05:50:05.931    27 Oct 2031 06:36:33.013      2787.0814491    Jupiter         Umbra       169           2787.0814491
27 Oct 2031 09:25:00.874    27 Oct 2031 10:11:29.818      2788.9443193    Jupiter         Umbra       170           2788.9443193
27 Oct 2031 12:59:55.847    27 Oct 2031 13:46:26.551      2790.7042367    Jupiter         Umbra       171           2790.7042367
27 Oct 2031 16:34:39.211    27 Oct 2031 16:34:50.769      11.557748867    Jupiter         Penumbra    172           2803.7294911
27 Oct 2031 16:34:50.769    27 Oct 2031 17:21:22.941      2792.1717422    Jupiter         Umbra       172           2803.7294911
27 Oct 2031 20:09:45.579    27 Oct 2031 20:56:18.831      2793.2526205    Jupiter         Umbra       173           2793.2526205
27 Oct 2031 23:44:40.252    28 Oct 2031 00:31:14.219      2793.9668039    Jupiter         Umbra       174           2793.9668039
28 Oct 2031 03:19:34.804    28 Oct 2031 04:06:09.241      2794.4363208    Jupiter         Umbra       175           2794.4363208
28 Oct 2031 06:54:29.287    28 Oct 2031 07:41:04.135      2794.8476801    Jupiter         Umbra       176           2794.8476801
28 Oct 2031 10:29:23.770    28 Oct 2031 11:15:59.170      2795.3993989    Jupiter         Umbra       177           2795.3993989
28 Oct 2031 14:04:18.324    28 Oct 2031 14:50:54.571      2796.2477479    Jupiter         Umbra       178           2796.2477479
28 Oct 2031 17:39:12.998    28 Oct 2031 18:25:50.462      2797.4635568    Jupiter         Umbra       179           2797.4635568
28 Oct 2031 21:14:07.811    28 Oct 2031 22:00:46.822      2799.0108754    Jupiter         Umbra       180           2799.0108754
29 Oct 2031 00:49:02.741    29 Oct 2031 01:35:43.496      2800.7551578    Jupiter         Umbra       181           2800.7551578
29 Oct 2031 04:23:57.731    29 Oct 2031 05:10:40.232      2802.5010200    Jupiter         Umbra       182           2802.5010200
29 Oct 2031 07:58:52.708    29 Oct 2031 08:45:36.758      2804.0494086    Jupiter         Umbra       183           2804.0494086
29 Oct 2031 11:33:47.604    29 Oct 2031 12:20:32.859      2805.2556690    Jupiter         Umbra       184           2805.2556690
29 Oct 2031 15:08:42.372    29 Oct 2031 15:55:28.443      2806.0707006    Jupiter         Umbra       185           2806.0707006
29 Oct 2031 18:43:37.005    29 Oct 2031 19:30:23.558      2806.5532807    Jupiter         Umbra       186           2806.5532807
29 Oct 2031 22:18:31.530    29 Oct 2031 23:05:18.382      2806.8518803    Jupiter         Umbra       187           2806.8518803
30 Oct 2031 01:53:26.008    30 Oct 2031 02:40:13.171      2807.1631653    Jupiter         Umbra       188           2807.1631653
30 Oct 2031 05:28:20.509    30 Oct 2031 06:15:08.187      2807.6784613    Jupiter         Umbra       189           2807.6784613
30 Oct 2031 09:03:15.100    30 Oct 2031 09:50:03.631      2808.5309549    Jupiter         Umbra       190           2808.5309549
30 Oct 2031 12:38:09.822    30 Oct 2031 13:24:59.578      2809.7560180    Jupiter         Umbra       191           2809.7560180
30 Oct 2031 16:13:04.679    30 Oct 2031 16:59:55.955      2811.2754488    Jupiter         Umbra       192           2811.2754488
30 Oct 2031 19:47:59.633    30 Oct 2031 20:34:52.545      2812.9124062    Jupiter         Umbra       193           2812.9124062
30 Oct 2031 23:22:54.612    31 Oct 2031 00:09:49.048      2814.4358169    Jupiter         Umbra       194           2814.4358169
31 Oct 2031 02:57:49.531    31 Oct 2031 03:44:45.152      2815.6209813    Jupiter         Umbra       195           2815.6209813
31 Oct 2031 06:32:44.312    31 Oct 2031 07:19:40.621      2816.3094463    Jupiter         Umbra       196           2816.3094463
31 Oct 2031 10:07:38.905    31 Oct 2031 10:54:35.354      2816.4490069    Jupiter         Umbra       197           2826.4099127
31 Oct 2031 10:54:35.354    31 Oct 2031 10:54:45.314      9.9609057885    Jupiter         Penumbra    197           2826.4099127
31 Oct 2031 13:42:33.298    31 Oct 2031 14:29:29.402      2816.1036664    Jupiter         Umbra       198           2816.1036664
31 Oct 2031 17:17:27.522    31 Oct 2031 18:04:22.955      2815.4330580    Jupiter         Umbra       199           2815.4330580
31 Oct 2031 20:52:21.639    31 Oct 2031 21:39:16.289      2814.6497509    Jupiter         Umbra       200           2814.6497509
01 Nov 2031 00:27:15.724    01 Nov 2031 01:14:09.690      2813.9651980    Jupiter         Umbra       201           2813.9651980
01 Nov 2031 04:02:09.852    01 Nov 2031 04:49:03.389      2813.5370313    Jupiter         Umbra       202           2813.5370313
01 Nov 2031 07:37:04.070    01 Nov 2031 08:23:57.501      2813.4306857    Jupiter         Umbra       203           2813.4306857
01 Nov 2031 11:11:58.395    01 Nov 2031 11:58:52.001      2813.6059393    Jupiter         Umbra       204           2813.6059393
01 Nov 2031 14:46:52.802    01 Nov 2031 15:33:46.736      2813.9335338    Jupiter         Umbra       205           2813.9335338
01 Nov 2031 18:21:47.239    01 Nov 2031 19:08:41.478      2814.2390391    Jupiter         Umbra       206           2814.2390391
01 Nov 2031 21:56:41.642    01 Nov 2031 22:43:36.004      2814.3618583    Jupiter         Umbra       207           2814.3618583
02 Nov 2031 01:31:35.956    02 Nov 2031 02:18:30.165      2814.2091252    Jupiter         Umbra       208           2814.2091252
02 Nov 2031 05:06:30.156    02 Nov 2031 05:53:23.944      2813.7879132    Jupiter         Umbra       209           2813.7879132
02 Nov 2031 08:41:24.253    02 Nov 2031 09:28:17.461      2813.2083693    Jupiter         Umbra       210           2813.2083693
02 Nov 2031 12:16:18.296    02 Nov 2031 13:03:10.953      2812.6573457    Jupiter         Umbra       211           2812.6573457
02 Nov 2031 15:51:12.357    02 Nov 2031 16:38:04.710      2812.3524590    Jupiter         Umbra       212           2812.3524590
02 Nov 2031 19:26:06.520    02 Nov 2031 20:12:59.007      2812.4879133    Jupiter         Umbra       213           2812.4879133
02 Nov 2031 23:01:00.851    02 Nov 2031 23:47:54.036      2813.1841992    Jupiter         Umbra       214           2813.1841992
03 Nov 2031 02:35:55.392    03 Nov 2031 03:22:49.846      2814.4543292    Jupiter         Umbra       215           2814.4543292
03 Nov 2031 06:10:50.137    03 Nov 2031 06:57:46.334      2816.1967477    Jupiter         Umbra       216           2816.1967477
03 Nov 2031 09:45:45.043    03 Nov 2031 10:32:43.262      2818.2189568    Jupiter         Umbra       217           2818.2189568
03 Nov 2031 13:20:40.035    03 Nov 2031 14:07:40.323      2820.2872034    Jupiter         Umbra       218           2820.2872034
03 Nov 2031 16:55:35.028    03 Nov 2031 17:42:37.217      2822.1885258    Jupiter         Umbra       219           2822.1885258
03 Nov 2031 20:30:29.950    03 Nov 2031 21:17:33.736      2823.7856700    Jupiter         Umbra       220           2823.7856700
04 Nov 2031 00:05:24.760    04 Nov 2031 00:52:29.808      2825.0481965    Jupiter         Umbra       221           2825.0481965
04 Nov 2031 03:40:19.456    04 Nov 2031 04:27:25.510      2826.0538444    Jupiter         Umbra       222           2826.0538444
04 Nov 2031 07:15:14.076    04 Nov 2031 08:02:21.037      2826.9617950    Jupiter         Umbra       223           2826.9617950
04 Nov 2031 10:50:08.682    04 Nov 2031 11:37:16.648      2827.9661373    Jupiter         Umbra       224           2827.9661373
04 Nov 2031 14:25:03.346    04 Nov 2031 15:12:12.588      2829.2419445    Jupiter         Umbra       225           2829.2419445
04 Nov 2031 17:59:58.129    04 Nov 2031 18:47:09.026      2830.8972092    Jupiter         Umbra       226           2830.8972092
04 Nov 2031 21:34:41.759    04 Nov 2031 21:34:53.062      11.303850752    Jupiter         Penumbra    227           2844.2444531
04 Nov 2031 21:34:53.062    04 Nov 2031 22:22:06.003      2832.9406023    Jupiter         Umbra       227           2844.2444531
05 Nov 2031 01:09:48.140    05 Nov 2031 01:57:03.417      2835.2764106    Jupiter         Umbra       228           2835.2764106
05 Nov 2031 04:44:32.051    05 Nov 2031 04:44:43.319      11.268552463    Jupiter         Penumbra    229           2848.9988398
05 Nov 2031 04:44:43.319    05 Nov 2031 05:32:01.050      2837.7302873    Jupiter         Umbra       229           2848.9988398
05 Nov 2031 08:19:38.531    05 Nov 2031 09:06:58.630      2840.0990345    Jupiter         Umbra       230           2840.0990345
05 Nov 2031 11:54:33.700    05 Nov 2031 12:41:55.910      2842.2093109    Jupiter         Umbra       231           2842.2093109
05 Nov 2031 15:29:28.771    05 Nov 2031 16:16:52.738      2843.9670199    Jupiter         Umbra       232           2843.9670199
05 Nov 2031 19:04:23.717    05 Nov 2031 19:51:49.100      2845.3823216    Jupiter         Umbra       233           2845.3823216
05 Nov 2031 22:39:18.552    05 Nov 2031 23:26:45.116      2846.5640700    Jupiter         Umbra       234           2846.5640700
06 Nov 2031 02:14:13.320    06 Nov 2031 03:01:41.009      2847.6883812    Jupiter         Umbra       235           2847.6883812
06 Nov 2031 05:49:08.091    06 Nov 2031 06:36:37.041      2848.9498270    Jupiter         Umbra       236           2848.9498270
06 Nov 2031 09:24:02.934    06 Nov 2031 10:11:33.441      2850.5079438    Jupiter         Umbra       237           2850.5079438
06 Nov 2031 12:58:57.900    06 Nov 2031 13:46:30.341      2852.4405142    Jupiter         Umbra       238           2852.4405142
06 Nov 2031 16:33:53.011    06 Nov 2031 17:21:27.728      2854.7165561    Jupiter         Umbra       239           2854.7165561
06 Nov 2031 20:08:48.244    06 Nov 2031 20:56:25.441      2857.1975588    Jupiter         Umbra       240           2857.1975588
06 Nov 2031 23:43:43.539    07 Nov 2031 00:31:23.208      2859.6693996    Jupiter         Umbra       241           2859.6693996
07 Nov 2031 03:18:38.815    07 Nov 2031 04:06:20.712      2861.8971498    Jupiter         Umbra       242           2861.8971498
07 Nov 2031 06:53:33.987    07 Nov 2031 07:41:17.673      2863.6866178    Jupiter         Umbra       243           2863.6866178
07 Nov 2031 10:28:28.991    07 Nov 2031 11:16:13.925      2864.9338280    Jupiter         Umbra       244           2864.9338280
07 Nov 2031 14:03:23.797    07 Nov 2031 14:51:09.446      2865.6481479    Jupiter         Umbra       245           2865.6481479
07 Nov 2031 17:38:18.418    07 Nov 2031 18:26:04.363      2865.9445284    Jupiter         Umbra       246           2865.9445284
07 Nov 2031 21:13:12.901    07 Nov 2031 22:00:58.912      2866.0105925    Jupiter         Umbra       247           2866.0105925
08 Nov 2031 00:48:07.315    08 Nov 2031 01:35:53.373      2866.0574804    Jupiter         Umbra       248           2866.0574804
08 Nov 2031 04:23:01.735    08 Nov 2031 05:10:48.000      2866.2651959    Jupiter         Umbra       249           2866.2651959
08 Nov 2031 07:57:56.220    08 Nov 2031 08:45:42.957      2866.7374399    Jupiter         Umbra       250           2866.7374399
08 Nov 2031 11:32:50.798    08 Nov 2031 12:20:38.274      2867.4765829    Jupiter         Umbra       251           2867.4765829
08 Nov 2031 15:07:45.460    08 Nov 2031 15:55:33.846      2868.3864917    Jupiter         Umbra       252           2868.3864917
08 Nov 2031 18:42:40.163    08 Nov 2031 19:30:29.468      2869.3055530    Jupiter         Umbra       253           2869.3055530
08 Nov 2031 22:17:34.845    08 Nov 2031 23:05:24.906      2870.0608257    Jupiter         Umbra       254           2870.0608257
09 Nov 2031 01:52:29.447    09 Nov 2031 02:40:19.972      2870.5252123    Jupiter         Umbra       255           2870.5252123
09 Nov 2031 05:27:23.928    09 Nov 2031 06:15:14.588      2870.6598757    Jupiter         Umbra       256           2870.6598757
09 Nov 2031 09:02:18.284    09 Nov 2031 09:50:08.814      2870.5301383    Jupiter         Umbra       257           2870.5301383
09 Nov 2031 12:37:12.547    09 Nov 2031 13:25:02.839      2870.2917501    Jupiter         Umbra       258           2870.2917501
09 Nov 2031 16:12:06.781    09 Nov 2031 16:59:56.933      2870.1527867    Jupiter         Umbra       259           2870.1527867
09 Nov 2031 19:47:01.062    09 Nov 2031 20:34:51.385      2870.3222789    Jupiter         Umbra       260           2870.3222789
09 Nov 2031 23:21:55.468    10 Nov 2031 00:09:46.426      2870.9577927    Jupiter         Umbra       261           2870.9577927
10 Nov 2031 02:56:50.050    10 Nov 2031 03:44:42.172      2872.1224426    Jupiter         Umbra       262           2881.7638124
10 Nov 2031 03:44:42.172    10 Nov 2031 03:44:51.813      9.6413698280    Jupiter         Penumbra    262           2881.7638124
10 Nov 2031 06:31:44.823    10 Nov 2031 07:19:38.588      2873.7655110    Jupiter         Umbra       263           2873.7655110
10 Nov 2031 10:06:39.760    10 Nov 2031 10:54:35.492      2875.7324713    Jupiter         Umbra       264           2885.3517959
10 Nov 2031 10:54:35.492    10 Nov 2031 10:54:45.112      9.6193245845    Jupiter         Penumbra    264           2885.3517959
10 Nov 2031 13:41:34.799    10 Nov 2031 14:29:32.603      2877.8039943    Jupiter         Umbra       265           2877.8039943
10 Nov 2031 17:16:29.858    10 Nov 2031 18:04:29.613      2879.7545420    Jupiter         Umbra       266           2879.7545420
10 Nov 2031 20:51:24.860    10 Nov 2031 21:39:26.272      2881.4115644    Jupiter         Umbra       267           2881.4115644
11 Nov 2031 00:26:19.750    11 Nov 2031 01:14:22.447      2882.6975525    Jupiter         Umbra       268           2882.6975525
11 Nov 2031 04:01:14.509    11 Nov 2031 04:49:18.154      2883.6444871    Jupiter         Umbra       269           2883.6444871
11 Nov 2031 07:36:09.159    11 Nov 2031 08:24:13.538      2884.3789612    Jupiter         Umbra       270           2884.3789612
11 Nov 2031 11:11:03.752    11 Nov 2031 11:59:08.836      2885.0838388    Jupiter         Umbra       271           2885.0838388
11 Nov 2031 14:45:58.356    11 Nov 2031 15:34:04.304      2885.9470608    Jupiter         Umbra       272           2885.9470608
11 Nov 2031 18:20:53.039    11 Nov 2031 19:09:00.148      2887.1099022    Jupiter         Umbra       273           2887.1099022
11 Nov 2031 21:55:47.843    11 Nov 2031 22:43:56.470      2888.6265958    Jupiter         Umbra       274           2888.6265958
12 Nov 2031 01:30:42.781    12 Nov 2031 02:18:53.228      2890.4468365    Jupiter         Umbra       275           2890.4468365
12 Nov 2031 05:05:37.825    12 Nov 2031 05:53:50.253      2892.4280431    Jupiter         Umbra       276           2892.4280431
12 Nov 2031 08:40:32.916    12 Nov 2031 09:28:47.292      2894.3763540    Jupiter         Umbra       277           2894.3763540
12 Nov 2031 12:15:27.982    12 Nov 2031 13:03:44.085      2896.1024115    Jupiter         Umbra       278           2896.1024115
12 Nov 2031 15:50:22.958    12 Nov 2031 16:38:40.435      2897.4766999    Jupiter         Umbra       279           2897.4766999
12 Nov 2031 19:25:17.806    12 Nov 2031 20:13:36.271      2898.4654871    Jupiter         Umbra       280           2898.4654871
12 Nov 2031 23:00:12.521    12 Nov 2031 23:48:31.659      2899.1381681    Jupiter         Umbra       281           2899.1381681
13 Nov 2031 02:35:07.137    13 Nov 2031 03:23:26.784      2899.6467212    Jupiter         Umbra       282           2899.6467212
13 Nov 2031 06:10:01.714    13 Nov 2031 06:58:21.898      2900.1840561    Jupiter         Umbra       283           2900.1840561
13 Nov 2031 09:44:56.322    13 Nov 2031 10:33:17.253      2900.9316173    Jupiter         Umbra       284           2900.9316173
13 Nov 2031 13:19:51.023    13 Nov 2031 14:08:13.032      2902.0085094    Jupiter         Umbra       285           2902.0085094
13 Nov 2031 16:54:34.939    13 Nov 2031 16:54:45.853      10.914531676    Jupiter         Penumbra    286           2914.3493070
13 Nov 2031 16:54:45.853    13 Nov 2031 17:43:09.288      2903.4347753    Jupiter         Umbra       286           2914.3493070
13 Nov 2031 20:29:40.809    13 Nov 2031 21:18:05.929      2905.1196296    Jupiter         Umbra       287           2905.1196296
14 Nov 2031 00:04:35.848    14 Nov 2031 00:53:02.728      2906.8803165    Jupiter         Umbra       288           2906.8803165
14 Nov 2031 03:39:30.897    14 Nov 2031 04:27:59.385      2908.4880483    Jupiter         Umbra       289           2908.4880483
14 Nov 2031 07:14:25.872    14 Nov 2031 08:02:55.601      2909.7285395    Jupiter         Umbra       290           2909.7285395
14 Nov 2031 10:49:20.701    14 Nov 2031 11:37:51.158      2910.4576520    Jupiter         Umbra       291           2910.4576520
14 Nov 2031 14:24:15.337    14 Nov 2031 15:12:45.973      2910.6360664    Jupiter         Umbra       292           2910.6360664
14 Nov 2031 17:59:09.776    14 Nov 2031 18:47:40.111      2910.3350390    Jupiter         Umbra       293           2910.3350390
14 Nov 2031 21:34:04.050    14 Nov 2031 22:22:33.764      2909.7141713    Jupiter         Umbra       294           2909.7141713
15 Nov 2031 01:08:58.220    15 Nov 2031 01:57:27.198      2908.9784826    Jupiter         Umbra       295           2908.9784826
15 Nov 2031 04:43:52.360    15 Nov 2031 05:32:20.685      2908.3256925    Jupiter         Umbra       296           2908.3256925
15 Nov 2031 08:18:46.537    15 Nov 2031 09:07:14.433      2907.8962327    Jupiter         Umbra       297           2907.8962327
15 Nov 2031 11:53:40.793    15 Nov 2031 12:42:08.531      2907.7383170    Jupiter         Umbra       298           2907.7383170
15 Nov 2031 15:28:35.137    15 Nov 2031 16:17:02.935      2907.7981298    Jupiter         Umbra       299           2907.7981298
15 Nov 2031 19:03:29.540    15 Nov 2031 19:51:57.480      2907.9402905    Jupiter         Umbra       300           2907.9402905
15 Nov 2031 22:38:23.946    15 Nov 2031 23:26:51.941      2907.9946894    Jupiter         Umbra       301           2907.9946894
16 Nov 2031 02:13:18.294    16 Nov 2031 03:01:46.107      2907.8130940    Jupiter         Umbra       302           2907.8130940
16 Nov 2031 05:48:12.535    16 Nov 2031 06:36:39.855      2907.3192694    Jupiter         Umbra       303           2907.3192694
16 Nov 2031 09:23:06.650    16 Nov 2031 10:11:33.186      2906.5363867    Jupiter         Umbra       304           2906.5363867
16 Nov 2031 12:58:00.655    16 Nov 2031 13:46:26.240      2905.5856487    Jupiter         Umbra       305           2905.5856487
16 Nov 2031 16:32:54.602    16 Nov 2031 17:21:19.260      2904.6582674    Jupiter         Umbra       306           2904.6582674
16 Nov 2031 20:07:48.566    16 Nov 2031 20:56:12.536      2903.9697320    Jupiter         Umbra       307           2903.9697320
16 Nov 2031 23:42:42.628    17 Nov 2031 00:31:06.334      2903.7067638    Jupiter         Umbra       308           2903.7067638
17 Nov 2031 03:17:36.851    17 Nov 2031 04:06:00.830      2903.9792377    Jupiter         Umbra       309           2903.9792377
17 Nov 2031 06:52:31.270    17 Nov 2031 07:40:56.060      2904.7897217    Jupiter         Umbra       310           2904.7897217
17 Nov 2031 10:27:25.879    17 Nov 2031 11:15:51.909      2906.0302821    Jupiter         Umbra       311           2906.0302821
17 Nov 2031 14:02:20.629    17 Nov 2031 14:50:48.138      2907.5095187    Jupiter         Umbra       312           2907.5095187
17 Nov 2031 17:37:15.447    17 Nov 2031 18:25:44.450      2909.0037025    Jupiter         Umbra       313           2909.0037025
17 Nov 2031 21:12:10.252    17 Nov 2031 22:00:40.569      2910.3170390    Jupiter         Umbra       314           2910.3170390
18 Nov 2031 00:47:04.978    18 Nov 2031 01:35:36.310      2911.3317822    Jupiter         Umbra       315           2911.3317822
18 Nov 2031 04:21:59.593    18 Nov 2031 05:10:31.628      2912.0342163    Jupiter         Umbra       316           2912.0342163
18 Nov 2031 07:56:54.101    18 Nov 2031 08:45:26.614      2912.5128580    Jupiter         Umbra       317           2912.5128580
18 Nov 2031 11:31:48.543    18 Nov 2031 12:20:21.472      2912.9292263    Jupiter         Umbra       318           2912.9292263
18 Nov 2031 15:06:42.982    18 Nov 2031 15:55:16.454      2913.4723340    Jupiter         Umbra       319           2913.4723340
18 Nov 2031 18:41:37.488    18 Nov 2031 19:30:11.795      2914.3069610    Jupiter         Umbra       320           2914.3069610
18 Nov 2031 22:16:32.118    18 Nov 2031 23:05:07.645      2915.5270584    Jupiter         Umbra       321           2915.5270584
19 Nov 2031 01:51:26.898    19 Nov 2031 02:40:04.026      2917.1276080    Jupiter         Umbra       322           2917.1276080
19 Nov 2031 05:26:21.818    19 Nov 2031 06:15:00.822      2919.0042700    Jupiter         Umbra       323           2919.0042700
19 Nov 2031 09:01:16.829    19 Nov 2031 09:49:57.812      2920.9822736    Jupiter         Umbra       324           2920.9822736
19 Nov 2031 12:36:11.865    19 Nov 2031 13:24:54.732      2922.8669377    Jupiter         Umbra       325           2922.8669377
19 Nov 2031 16:11:06.855    19 Nov 2031 16:59:51.356      2924.5005356    Jupiter         Umbra       326           2924.5005356
19 Nov 2031 19:46:01.748    19 Nov 2031 20:34:47.555      2925.8070872    Jupiter         Umbra       327           2925.8070872
19 Nov 2031 23:20:56.524    20 Nov 2031 00:09:43.335      2926.8114257    Jupiter         Umbra       328           2926.8114257
20 Nov 2031 02:55:51.201    20 Nov 2031 03:44:38.832      2927.6310802    Jupiter         Umbra       329           2936.9908860
20 Nov 2031 03:44:38.832    20 Nov 2031 03:44:48.192      9.3598057749    Jupiter         Penumbra    329           2936.9908860
20 Nov 2031 06:30:45.830    20 Nov 2031 07:19:34.273      2928.4431961    Jupiter         Umbra       330           2928.4431961
20 Nov 2031 10:05:40.478    20 Nov 2031 10:54:29.915      2929.4367176    Jupiter         Umbra       331           2929.4367176
20 Nov 2031 13:40:35.215    20 Nov 2031 14:29:25.974      2930.7596459    Jupiter         Umbra       332           2930.7596459
20 Nov 2031 17:15:30.087    20 Nov 2031 18:04:22.563      2932.4760443    Jupiter         Umbra       333           2932.4760443
20 Nov 2031 20:50:25.109    20 Nov 2031 21:39:19.652      2934.5422144    Jupiter         Umbra       334           2934.5422144
21 Nov 2031 00:25:20.255    21 Nov 2031 01:14:17.067      2936.8118435    Jupiter         Umbra       335           2936.8118435
21 Nov 2031 04:00:15.463    21 Nov 2031 04:49:14.534      2939.0711793    Jupiter         Umbra       336           2939.0711793
21 Nov 2031 07:35:10.649    21 Nov 2031 08:24:11.744      2941.0943678    Jupiter         Umbra       337           2941.0943678
21 Nov 2031 11:10:05.734    21 Nov 2031 11:59:08.436      2942.7019770    Jupiter         Umbra       338           2942.7019770
21 Nov 2031 14:45:00.658    21 Nov 2031 15:34:04.463      2943.8051885    Jupiter         Umbra       339           2943.8051885
21 Nov 2031 18:19:55.397    21 Nov 2031 19:08:59.821      2944.4240181    Jupiter         Umbra       340           2944.4240181
21 Nov 2031 21:54:39.276    21 Nov 2031 21:54:49.966      10.690408596    Jupiter         Penumbra    341           2955.3676302
21 Nov 2031 21:54:49.966    21 Nov 2031 22:43:54.644      2944.6772216    Jupiter         Umbra       341           2955.3676302
22 Nov 2031 01:29:44.416    22 Nov 2031 02:18:49.164      2944.7481620    Jupiter         Umbra       342           2944.7481620
22 Nov 2031 05:04:38.815    22 Nov 2031 05:53:43.651      2944.8361795    Jupiter         Umbra       343           2944.8361795
22 Nov 2031 08:39:33.233    22 Nov 2031 09:28:38.338      2945.1048740    Jupiter         Umbra       344           2945.1048740
22 Nov 2031 12:14:27.724    22 Nov 2031 13:03:33.363      2945.6398559    Jupiter         Umbra       345           2945.6398559
22 Nov 2031 15:49:22.309    22 Nov 2031 16:38:28.736      2946.4270342    Jupiter         Umbra       346           2946.4270342
22 Nov 2031 19:24:16.973    22 Nov 2031 20:13:24.333      2947.3602839    Jupiter         Umbra       347           2947.3602839
22 Nov 2031 22:59:11.670    22 Nov 2031 23:48:19.948      2948.2776962    Jupiter         Umbra       348           2948.2776962
23 Nov 2031 02:34:06.338    23 Nov 2031 03:23:15.353      2949.0150784    Jupiter         Umbra       349           2949.0150784
23 Nov 2031 06:09:00.919    23 Nov 2031 06:58:10.379      2949.4598412    Jupiter         Umbra       350           2949.4598412
23 Nov 2031 09:43:55.379    23 Nov 2031 10:33:04.968      2949.5888092    Jupiter         Umbra       351           2949.5888092
23 Nov 2031 13:18:49.719    23 Nov 2031 14:07:59.199      2949.4793499    Jupiter         Umbra       352           2949.4793499
23 Nov 2031 16:53:43.977    23 Nov 2031 17:42:53.269      2949.2923350    Jupiter         Umbra       353           2949.2923350
23 Nov 2031 20:28:38.216    23 Nov 2031 21:17:47.450      2949.2340133    Jupiter         Umbra       354           2949.2340133
24 Nov 2031 00:03:32.517    24 Nov 2031 00:52:42.023      2949.5062665    Jupiter         Umbra       355           2949.5062665
24 Nov 2031 03:38:26.951    24 Nov 2031 04:27:37.205      2950.2543809    Jupiter         Umbra       356           2950.2543809
24 Nov 2031 07:13:21.567    24 Nov 2031 08:02:33.095      2951.5285517    Jupiter         Umbra       357           2951.5285517
24 Nov 2031 10:48:16.374    24 Nov 2031 11:37:29.642      2953.2677541    Jupiter         Umbra       358           2953.2677541
24 Nov 2031 14:23:11.342    24 Nov 2031 15:12:26.655      2955.3134971    Jupiter         Umbra       359           2955.3134971
24 Nov 2031 17:58:06.405    24 Nov 2031 18:47:23.856      2957.4515337    Jupiter         Umbra       360           2957.4515337
24 Nov 2031 21:33:01.484    24 Nov 2031 22:22:20.954      2959.4695303    Jupiter         Umbra       361           2959.4695303
25 Nov 2031 01:07:56.505    25 Nov 2031 01:57:17.718      2961.2122977    Jupiter         Umbra       362           2961.2122977
25 Nov 2031 04:42:51.421    25 Nov 2031 05:32:14.040      2962.6187853    Jupiter         Umbra       363           2962.6187853
25 Nov 2031 08:17:46.218    25 Nov 2031 09:07:09.950      2963.7321794    Jupiter         Umbra       364           2963.7321794
25 Nov 2031 11:52:40.922    25 Nov 2031 12:42:05.605      2964.6826345    Jupiter         Umbra       365           2964.6826345
25 Nov 2031 15:27:35.587    25 Nov 2031 16:17:01.236      2965.6486496    Jupiter         Umbra       366           2965.6486496
25 Nov 2031 19:02:30.281    25 Nov 2031 19:51:57.089      2966.8072608    Jupiter         Umbra       367           2966.8072608
25 Nov 2031 22:37:25.066    25 Nov 2031 23:26:53.351      2968.2845153    Jupiter         Umbra       368           2968.2845153
26 Nov 2031 02:12:19.982    26 Nov 2031 03:01:50.101      2970.1181298    Jupiter         Umbra       369           2970.1181298
26 Nov 2031 05:47:15.033    26 Nov 2031 06:36:47.278      2972.2443560    Jupiter         Umbra       370           2972.2443560
26 Nov 2031 09:22:10.186    26 Nov 2031 10:11:44.701      2974.5146943    Jupiter         Umbra       371           2974.5146943
26 Nov 2031 12:57:05.381    26 Nov 2031 13:46:42.118      2976.7377259    Jupiter         Umbra       372           2976.7377259
26 Nov 2031 16:32:00.545    26 Nov 2031 17:21:39.281      2978.7352734    Jupiter         Umbra       373           2978.7352734
26 Nov 2031 20:06:55.619    26 Nov 2031 20:56:36.012      2980.3930778    Jupiter         Umbra       374           2980.3930778
26 Nov 2031 23:41:50.569    27 Nov 2031 00:31:32.261      2981.6913043    Jupiter         Umbra       375           2981.6913043
27 Nov 2031 03:16:45.397    27 Nov 2031 04:06:28.106      2982.7082797    Jupiter         Umbra       376           2982.7082797
27 Nov 2031 06:51:40.140    27 Nov 2031 07:41:23.738      2983.5980714    Jupiter         Umbra       377           2983.5980714
27 Nov 2031 10:26:34.859    27 Nov 2031 11:16:19.407      2984.5484679    Jupiter         Umbra       378           2984.5484679
27 Nov 2031 14:01:29.622    27 Nov 2031 14:51:15.352      2985.7296926    Jupiter         Umbra       379           2985.7296926
27 Nov 2031 17:36:24.488    27 Nov 2031 18:26:11.734      2987.2459877    Jupiter         Umbra       380           2987.2459877
27 Nov 2031 21:11:19.487    27 Nov 2031 22:01:08.589      2989.1020655    Jupiter         Umbra       381           2989.1020655
28 Nov 2031 00:46:14.609    28 Nov 2031 01:36:05.805      2991.1950673    Jupiter         Umbra       382           2991.1950673
28 Nov 2031 04:21:09.808    28 Nov 2031 05:11:03.145      2993.3371474    Jupiter         Umbra       383           2993.3371474
28 Nov 2031 07:56:05.007    28 Nov 2031 08:46:00.311      2995.3035638    Jupiter         Umbra       384           2995.3035638
28 Nov 2031 11:31:00.125    28 Nov 2031 12:20:57.016      2996.8907774    Jupiter         Umbra       385           2996.8907774
28 Nov 2031 15:05:55.092    28 Nov 2031 15:55:53.060      2997.9680347    Jupiter         Umbra       386           2997.9680347
28 Nov 2031 18:40:49.869    28 Nov 2031 19:30:48.376      2998.5073114    Jupiter         Umbra       387           2998.5073114
28 Nov 2031 22:15:44.455    28 Nov 2031 23:05:43.040      2998.5852198    Jupiter         Umbra       388           2998.5852198
29 Nov 2031 01:50:38.883    29 Nov 2031 02:40:37.242      2998.3590913    Jupiter         Umbra       389           2998.3590913
29 Nov 2031 05:25:33.216    29 Nov 2031 06:15:31.241      2998.0244069    Jupiter         Umbra       390           2998.0244069
29 Nov 2031 09:00:27.524    29 Nov 2031 09:50:25.287      2997.7637031    Jupiter         Umbra       391           2997.7637031
29 Nov 2031 12:35:21.867    29 Nov 2031 13:25:19.566      2997.6989649    Jupiter         Umbra       392           2997.6989649
29 Nov 2031 16:10:16.282    29 Nov 2031 17:00:14.142      2997.8599421    Jupiter         Umbra       393           2997.8599421
29 Nov 2031 19:45:10.769    29 Nov 2031 20:35:08.948      2998.1788412    Jupiter         Umbra       394           2998.1788412
29 Nov 2031 23:20:05.294    30 Nov 2031 00:10:03.809      2998.5150884    Jupiter         Umbra       395           2998.5150884
30 Nov 2031 02:54:59.800    30 Nov 2031 03:44:58.502      2998.7022359    Jupiter         Umbra       396           2998.7022359
30 Nov 2031 06:29:54.227    30 Nov 2031 07:19:52.831      2998.6037094    Jupiter         Umbra       397           2998.6037094
30 Nov 2031 10:04:38.090    30 Nov 2031 10:04:48.531      10.440916638    Jupiter         Penumbra    398           3008.5989642
30 Nov 2031 10:04:48.531    30 Nov 2031 10:54:46.689      2998.1580476    Jupiter         Umbra       398           3008.5989642
30 Nov 2031 13:39:42.697    30 Nov 2031 14:29:40.099      2997.4016332    Jupiter         Umbra       399           2997.4016332
30 Nov 2031 17:14:36.748    30 Nov 2031 18:04:33.212      2996.4636542    Jupiter         Umbra       400           2996.4636542
30 Nov 2031 20:49:30.739    30 Nov 2031 21:39:26.276      2995.5371323    Jupiter         Umbra       401           2995.5371323
01 Dec 2031 00:24:24.743    01 Dec 2031 01:14:19.576      2994.8331888    Jupiter         Umbra       402           2994.8331888
01 Dec 2031 03:59:18.840    01 Dec 2031 04:49:13.369      2994.5290842    Jupiter         Umbra       403           2994.5290842
01 Dec 2031 07:34:13.090    01 Dec 2031 08:24:07.812      2994.7226502    Jupiter         Umbra       404           2994.7226502
01 Dec 2031 11:09:07.521    01 Dec 2031 11:59:02.927      2995.4053644    Jupiter         Umbra       405           2995.4053644
01 Dec 2031 14:44:02.123    01 Dec 2031 15:33:58.585      2996.4628873    Jupiter         Umbra       406           2996.4628873
01 Dec 2031 18:18:56.844    01 Dec 2031 19:08:54.549      2997.7051790    Jupiter         Umbra       407           2997.7051790
01 Dec 2031 21:53:51.611    01 Dec 2031 22:43:50.530      2998.9190102    Jupiter         Umbra       408           2998.9190102
02 Dec 2031 01:28:46.349    02 Dec 2031 02:18:46.274      2999.9251321    Jupiter         Umbra       409           2999.9251321
02 Dec 2031 05:03:40.998    02 Dec 2031 05:53:41.622      3000.6236171    Jupiter         Umbra       410           3000.6236171
02 Dec 2031 08:38:35.532    02 Dec 2031 09:28:36.547      3001.0158493    Jupiter         Umbra       411           3001.0158493
02 Dec 2031 12:13:29.959    02 Dec 2031 13:03:31.158      3001.1985876    Jupiter         Umbra       412           3001.1985876
02 Dec 2031 15:48:24.325    02 Dec 2031 16:38:25.659      3001.3344486    Jupiter         Umbra       413           3001.3344486
02 Dec 2031 19:23:18.692    02 Dec 2031 20:13:20.299      3001.6067150    Jupiter         Umbra       414           3001.6067150
02 Dec 2031 22:58:13.130    02 Dec 2031 23:48:15.298      3002.1686738    Jupiter         Umbra       415           3002.1686738
03 Dec 2031 02:33:07.688    03 Dec 2031 03:23:10.788      3003.1000213    Jupiter         Umbra       416           3003.1000213
03 Dec 2031 06:08:02.390    03 Dec 2031 06:58:06.772      3004.3827177    Jupiter         Umbra       417           3004.3827177
03 Dec 2031 09:42:57.217    03 Dec 2031 10:33:03.121      3005.9045983    Jupiter         Umbra       418           3005.9045983
03 Dec 2031 13:17:52.121    03 Dec 2031 14:07:59.612      3007.4913473    Jupiter         Umbra       419           3007.4913473
03 Dec 2031 16:52:47.034    03 Dec 2031 17:42:55.992      3008.9578312    Jupiter         Umbra       420           3008.9578312
03 Dec 2031 20:27:41.890    03 Dec 2031 21:17:52.052      3010.1620838    Jupiter         Umbra       421           3010.1620838
04 Dec 2031 00:02:36.644    04 Dec 2031 00:52:47.688      3011.0446441    Jupiter         Umbra       422           3011.0446441
04 Dec 2031 03:37:31.281    04 Dec 2031 04:27:42.925      3011.6439871    Jupiter         Umbra       423           3011.6439871
04 Dec 2031 07:12:25.827    04 Dec 2031 08:02:37.912      3012.0853596    Jupiter         Umbra       424           3012.0853596
04 Dec 2031 10:47:20.333    04 Dec 2031 11:37:32.879      3012.5464942    Jupiter         Umbra       425           3012.5464942
04 Dec 2031 14:22:14.868    04 Dec 2031 15:12:28.078      3013.2099789    Jupiter         Umbra       426           3013.2099789
04 Dec 2031 17:57:09.498    04 Dec 2031 18:47:23.711      3014.2133826    Jupiter         Umbra       427           3014.2133826
04 Dec 2031 21:32:04.267    04 Dec 2031 22:22:19.874      3015.6076367    Jupiter         Umbra       428           3015.6076367
05 Dec 2031 01:06:59.184    05 Dec 2031 01:57:16.521      3017.3372341    Jupiter         Umbra       429           3017.3372341
05 Dec 2031 04:41:54.218    05 Dec 2031 05:32:13.468      3019.2500261    Jupiter         Umbra       430           3019.2500261
05 Dec 2031 08:16:49.305    05 Dec 2031 09:07:10.440      3021.1348912    Jupiter         Umbra       431           3021.1348912
05 Dec 2031 11:51:44.363    05 Dec 2031 12:42:07.140      3022.7764220    Jupiter         Umbra       432           3022.7764220
05 Dec 2031 15:26:39.315    05 Dec 2031 16:17:03.326      3024.0102937    Jupiter         Umbra       433           3024.0102937
05 Dec 2031 19:01:34.108    05 Dec 2031 19:51:58.871      3024.7628872    Jupiter         Umbra       434           3024.7628872
05 Dec 2031 22:36:28.723    05 Dec 2031 23:26:53.788      3025.0647520    Jupiter         Umbra       435           3025.0647520
06 Dec 2031 02:11:23.179    06 Dec 2031 03:01:48.218      3025.0380963    Jupiter         Umbra       436           3025.0380963
06 Dec 2031 05:46:17.528    06 Dec 2031 06:36:42.390      3024.8621945    Jupiter         Umbra       437           3024.8621945
06 Dec 2031 09:21:11.837    06 Dec 2031 10:11:36.563      3024.7257916    Jupiter         Umbra       438           3024.7257916
06 Dec 2031 12:56:06.174    06 Dec 2031 13:46:30.951      3024.7769914    Jupiter         Umbra       439           3024.7769914
06 Dec 2031 16:31:00.585    06 Dec 2031 17:21:25.669      3025.0841821    Jupiter         Umbra       440           3025.0841821
06 Dec 2031 20:05:55.086    06 Dec 2031 20:56:20.705      3025.6187931    Jupiter         Umbra       441           3025.6187931
06 Dec 2031 23:40:49.656    07 Dec 2031 00:31:15.924      3026.2671381    Jupiter         Umbra       442           3026.2671381
07 Dec 2031 03:15:44.247    07 Dec 2031 04:06:11.116      3026.8688580    Jupiter         Umbra       443           3026.8688580
07 Dec 2031 06:50:38.796    07 Dec 2031 07:41:06.066      3027.2699188    Jupiter         Umbra       444           3027.2699188
07 Dec 2031 10:25:33.250    07 Dec 2031 11:16:00.623      3027.3731099    Jupiter         Umbra       445           3027.3731099
07 Dec 2031 14:00:27.580    07 Dec 2031 14:50:54.751      3027.1706970    Jupiter         Umbra       446           3027.1706970
07 Dec 2031 17:35:21.793    07 Dec 2031 18:25:48.544      3026.7510767    Jupiter         Umbra       447           3026.7510767
