REPORTS/eclipses_600_01.txt

Spacecraft: DALA_SatFine

Start Time (UTC)            Stop Time (UTC)               Duration (s)    Occ Body        Type        Event Number  Total Duration (s)
02 Oct 2031 03:59:40.636    02 Oct 2031 04:45:34.922      2754.2855164    Jupiter         Umbra       1             2754.2855164
02 Oct 2031 07:31:07.238    02 Oct 2031 08:17:03.358      2756.1206666    Jupiter         Umbra       2             2756.1206666
02 Oct 2031 11:02:33.974    02 Oct 2031 11:48:32.085      2758.1111903    Jupiter         Umbra       3             2758.1111903
02 Oct 2031 14:34:00.769    02 Oct 2031 15:20:00.822      2760.0535782    Jupiter         Umbra       4             2760.0535782
02 Oct 2031 18:05:27.520    02 Oct 2031 18:51:29.255      2761.7343054    Jupiter         Umbra       5             2761.7343054
02 Oct 2031 21:36:54.128    02 Oct 2031 22:22:57.114      2762.9856980    Jupiter         Umbra       6             2762.9856980
03 Oct 2031 01:08:20.520    03 Oct 2031 01:54:24.250      2763.7296722    Jupiter         Umbra       7             2763.7296722
03 Oct 2031 04:39:46.668    03 Oct 2031 05:25:50.664      2763.9961991    Jupiter         Umbra       8             2763.9961991
03 Oct 2031 08:11:12.593    03 Oct 2031 08:57:16.506      2763.9130730    Jupiter         Umbra       9             2763.9130730
03 Oct 2031 11:42:38.363    03 Oct 2031 12:28:42.035      2763.6716296    Jupiter         Umbra       10            2763.6716296
03 Oct 2031 15:14:04.068    03 Oct 2031 16:00:07.547      2763.4788928    Jupiter         Umbra       11            2763.4788928
03 Oct 2031 18:45:29.806    03 Oct 2031 19:31:33.314      2763.5082780    Jupiter         Umbra       12            2763.5082780
03 Oct 2031 22:16:55.651    03 Oct 2031 23:02:59.511      2763.8595894    Jupiter         Umbra       13            2763.8595894
04 Oct 2031 01:48:21.643    04 Oct 2031 02:34:26.181      2764.5376591    Jupiter         Umbra       14            2764.5376591
04 Oct 2031 05:19:47.776    04 Oct 2031 06:05:53.232      2765.4556724    Jupiter         Umbra       15            2765.4556724
04 Oct 2031 08:51:14.000    04 Oct 2031 09:37:20.464      2766.4636772    Jupiter         Umbra       16            2766.4636772
04 Oct 2031 12:22:40.240    04 Oct 2031 13:08:47.636      2767.3959575    Jupiter         Umbra       17            2767.3959575
04 Oct 2031 15:54:06.420    04 Oct 2031 16:40:14.545      2768.1240823    Jupiter         Umbra       18            2768.1240823
04 Oct 2031 19:25:32.487    04 Oct 2031 20:11:41.085      2768.5986988    Jupiter         Umbra       19            2768.5986988
04 Oct 2031 22:56:58.425    04 Oct 2031 23:43:07.292      2768.8664107    Jupiter         Umbra       20            2768.8664107
05 Oct 2031 02:28:24.269    05 Oct 2031 03:14:33.329      2769.0600873    Jupiter         Umbra       21            2779.4524420
05 Oct 2031 03:14:33.329    05 Oct 2031 03:14:43.722      10.392354615    Jupiter         Penumbra    21            2779.4524420
05 Oct 2031 05:59:50.089    05 Oct 2031 06:45:59.453      2769.3643611    Jupiter         Umbra       22            2769.3643611
05 Oct 2031 09:31:15.977    05 Oct 2031 10:17:25.946      2769.9693593    Jupiter         Umbra       23            2769.9693593
05 Oct 2031 13:02:42.024    05 Oct 2031 13:48:53.045      2771.0218280    Jupiter         Umbra       24            2771.0218280
05 Oct 2031 16:34:08.296    05 Oct 2031 17:20:20.883      2772.5870503    Jupiter         Umbra       25            2772.5870503
05 Oct 2031 20:05:34.817    05 Oct 2031 20:51:49.445      2774.6282137    Jupiter         Umbra       26            2774.6282137
05 Oct 2031 23:37:01.561    06 Oct 2031 00:23:18.572      2777.0103441    Jupiter         Umbra       27            2777.0103441
06 Oct 2031 03:08:28.456    06 Oct 2031 03:54:47.987      2779.5303302    Jupiter         Umbra       28            2779.5303302
06 Oct 2031 06:39:55.402    06 Oct 2031 07:26:17.369      2781.9663472    Jupiter         Umbra       29            2781.9663472
06 Oct 2031 10:11:22.296    06 Oct 2031 10:57:46.429      2784.1332466    Jupiter         Umbra       30            2784.1332466
06 Oct 2031 13:42:49.057    06 Oct 2031 14:29:14.985      2785.9279160    Jupiter         Umbra       31            2785.9279160
06 Oct 2031 17:14:15.648    06 Oct 2031 18:00:43.000      2787.3512657    Jupiter         Umbra       32            2787.3512657
06 Oct 2031 20:45:42.080    06 Oct 2031 21:32:10.582      2788.5012085    Jupiter         Umbra       33            2788.5012085
07 Oct 2031 00:17:08.407    07 Oct 2031 01:03:37.948      2789.5413199    Jupiter         Umbra       34            2789.5413199
07 Oct 2031 03:48:34.709    07 Oct 2031 04:35:05.364      2790.6554207    Jupiter         Umbra       35            2790.6554207
07 Oct 2031 07:20:01.071    07 Oct 2031 08:06:33.069      2791.9981695    Jupiter         Umbra       36            2791.9981695
07 Oct 2031 10:51:27.560    07 Oct 2031 11:38:01.215      2793.6544973    Jupiter         Umbra       37            2793.6544973
07 Oct 2031 14:22:54.208    07 Oct 2031 15:09:29.824      2795.6159852    Jupiter         Umbra       38            2795.6159852
07 Oct 2031 17:54:21.001    07 Oct 2031 18:40:58.782      2797.7809661    Jupiter         Umbra       39            2797.7809661
07 Oct 2031 21:25:47.880    07 Oct 2031 22:12:27.861      2799.9807989    Jupiter         Umbra       40            2799.9807989
08 Oct 2031 00:57:14.763    08 Oct 2031 01:43:56.790      2802.0262005    Jupiter         Umbra       41            2802.0262005
08 Oct 2031 04:28:41.563    08 Oct 2031 05:15:25.323      2803.7604039    Jupiter         Umbra       42            2803.7604039
08 Oct 2031 08:00:08.212    08 Oct 2031 08:46:53.315      2805.1031132    Jupiter         Umbra       43            2805.1031132
08 Oct 2031 11:31:34.683    08 Oct 2031 12:18:20.755      2806.0719264    Jupiter         Umbra       44            2806.0719264
08 Oct 2031 15:03:00.994    08 Oct 2031 15:49:47.769      2806.7753808    Jupiter         Umbra       45            2806.7753808
08 Oct 2031 18:34:27.201    08 Oct 2031 19:21:14.582      2807.3814490    Jupiter         Umbra       46            2807.3814490
08 Oct 2031 22:05:53.385    08 Oct 2031 22:52:41.457      2808.0724430    Jupiter         Umbra       47            2808.0724430
09 Oct 2031 01:37:19.628    09 Oct 2031 02:24:08.625      2808.9962178    Jupiter         Umbra       48            2808.9962178
09 Oct 2031 05:08:45.994    09 Oct 2031 05:55:36.219      2810.2253332    Jupiter         Umbra       49            2810.2253332
09 Oct 2031 08:40:12.505    09 Oct 2031 09:27:04.239      2811.7335514    Jupiter         Umbra       50            2811.7335514
09 Oct 2031 12:11:39.140    09 Oct 2031 12:58:32.538      2813.3977643    Jupiter         Umbra       51            2813.3977643
09 Oct 2031 15:43:05.831    09 Oct 2031 16:30:00.856      2815.0244289    Jupiter         Umbra       52            2815.0244289
09 Oct 2031 19:14:32.485    09 Oct 2031 20:01:28.882      2816.3978725    Jupiter         Umbra       53            2816.3978725
09 Oct 2031 22:45:59.000    09 Oct 2031 23:32:56.337      2817.3367969    Jupiter         Umbra       54            2817.3367969
10 Oct 2031 02:17:25.301    10 Oct 2031 03:04:23.042      2817.7413939    Jupiter         Umbra       55            2817.7413939
10 Oct 2031 05:48:51.349    10 Oct 2031 06:35:48.967      2817.6176720    Jupiter         Umbra       56            2817.6176720
10 Oct 2031 09:20:17.156    10 Oct 2031 10:07:14.229      2817.0734887    Jupiter         Umbra       57            2817.0734887
10 Oct 2031 12:51:42.776    10 Oct 2031 13:38:39.065      2816.2892166    Jupiter         Umbra       58            2816.2892166
10 Oct 2031 16:23:08.295    10 Oct 2031 17:10:03.768      2815.4721942    Jupiter         Umbra       59            2815.4721942
10 Oct 2031 19:54:33.807    10 Oct 2031 20:41:28.614      2814.8070537    Jupiter         Umbra       60            2814.8070537
10 Oct 2031 23:25:59.390    11 Oct 2031 00:12:53.803      2814.4131725    Jupiter         Umbra       61            2814.4131725
11 Oct 2031 02:57:25.091    11 Oct 2031 03:44:19.409      2814.3182211    Jupiter         Umbra       62            2814.3182211
11 Oct 2031 06:28:50.914    11 Oct 2031 07:15:45.370      2814.4556631    Jupiter         Umbra       63            2814.4556631
11 Oct 2031 10:00:16.820    11 Oct 2031 10:47:11.509      2814.6884175    Jupiter         Umbra       64            2814.6884175
11 Oct 2031 13:31:42.741    11 Oct 2031 14:18:37.594      2814.8531521    Jupiter         Umbra       65            2814.8531521
11 Oct 2031 17:03:08.601    11 Oct 2031 17:50:03.415      2814.8134143    Jupiter         Umbra       66            2814.8134143
11 Oct 2031 20:34:34.344    11 Oct 2031 21:21:28.849      2814.5044005    Jupiter         Umbra       67            2814.5044005
12 Oct 2031 00:05:59.949    12 Oct 2031 00:52:53.904      2813.9557413    Jupiter         Umbra       68            2813.9557413
12 Oct 2031 03:37:25.438    12 Oct 2031 04:24:18.725      2813.2868327    Jupiter         Umbra       69            2813.2868327
12 Oct 2031 07:08:50.876    12 Oct 2031 07:55:43.554      2812.6776106    Jupiter         Umbra       70            2812.6776106
12 Oct 2031 10:40:16.352    12 Oct 2031 11:27:08.676      2812.3237998    Jupiter         Umbra       71            2812.3237998
12 Oct 2031 14:11:41.957    12 Oct 2031 14:58:34.346      2812.3883551    Jupiter         Umbra       72            2812.3883551
12 Oct 2031 17:43:07.767    12 Oct 2031 18:30:00.727      2812.9601799    Jupiter         Umbra       73            2812.9601799
12 Oct 2031 21:14:33.817    12 Oct 2031 22:01:27.846      2814.0288694    Jupiter         Umbra       74            2814.0288694
13 Oct 2031 00:46:00.093    13 Oct 2031 01:32:55.577      2815.4831420    Jupiter         Umbra       75            2815.4831420
13 Oct 2031 04:17:26.537    13 Oct 2031 05:04:23.673      2817.1356294    Jupiter         Umbra       76            2817.1356294
13 Oct 2031 07:48:53.057    13 Oct 2031 08:35:51.826      2818.7689098    Jupiter         Umbra       77            2818.7689098
13 Oct 2031 11:20:19.550    13 Oct 2031 12:07:19.741      2820.1905175    Jupiter         Umbra       78            2820.1905175
13 Oct 2031 14:51:45.934    13 Oct 2031 15:38:47.215      2821.2812359    Jupiter         Umbra       79            2821.2812359
13 Oct 2031 18:23:12.163    13 Oct 2031 19:10:14.185      2822.0219770    Jupiter         Umbra       80            2822.0219770
13 Oct 2031 21:54:38.238    13 Oct 2031 22:41:40.730      2822.4926204    Jupiter         Umbra       81            2822.4926204
14 Oct 2031 01:26:04.205    14 Oct 2031 02:13:07.050      2822.8458107    Jupiter         Umbra       82            2822.8458107
14 Oct 2031 04:57:30.139    14 Oct 2031 05:44:33.403      2823.2641612    Jupiter         Umbra       83            2833.3597908
14 Oct 2031 05:44:33.403    14 Oct 2031 05:44:43.499      10.095629585    Jupiter         Penumbra    83            2833.3597908
14 Oct 2031 08:28:56.126    14 Oct 2031 09:16:00.038      2823.9117499    Jupiter         Umbra       84            2823.9117499
14 Oct 2031 12:00:22.240    14 Oct 2031 12:47:27.131      2824.8910798    Jupiter         Umbra       85            2824.8910798
14 Oct 2031 15:31:48.520    14 Oct 2031 16:18:54.735      2826.2154119    Jupiter         Umbra       86            2826.2154119
14 Oct 2031 19:03:14.962    14 Oct 2031 19:50:22.766      2827.8037796    Jupiter         Umbra       87            2827.8037796
14 Oct 2031 22:34:41.521    14 Oct 2031 23:21:51.023      2829.5017392    Jupiter         Umbra       88            2829.5017392
15 Oct 2031 02:06:08.117    15 Oct 2031 02:53:19.241      2831.1240455    Jupiter         Umbra       89            2831.1240455
15 Oct 2031 05:37:34.664    15 Oct 2031 06:24:47.171      2832.5070124    Jupiter         Umbra       90            2832.5070124
15 Oct 2031 09:09:01.091    15 Oct 2031 09:56:14.646      2833.5548812    Jupiter         Umbra       91            2833.5548812
15 Oct 2031 12:40:27.361    15 Oct 2031 13:27:41.627      2834.2658988    Jupiter         Umbra       92            2834.2658988
15 Oct 2031 16:11:53.484    15 Oct 2031 16:59:08.215      2834.7308386    Jupiter         Umbra       93            2834.7308386
15 Oct 2031 19:43:19.509    15 Oct 2031 20:30:34.616      2835.1069681    Jupiter         Umbra       94            2835.1069681
15 Oct 2031 23:14:33.893    15 Oct 2031 23:14:45.514      11.621178291    Jupiter         Penumbra    95            2847.1967933
15 Oct 2031 23:14:45.514    16 Oct 2031 00:02:01.089      2835.5756150    Jupiter         Umbra       95            2847.1967933
16 Oct 2031 02:46:11.582    16 Oct 2031 03:33:27.876      2836.2939594    Jupiter         Umbra       96            2836.2939594
16 Oct 2031 06:17:37.781    16 Oct 2031 07:04:55.133      2837.3522606    Jupiter         Umbra       97            2837.3522606
16 Oct 2031 09:49:04.146    16 Oct 2031 10:36:22.893      2838.7466090    Jupiter         Umbra       98            2838.7466090
16 Oct 2031 13:20:30.665    16 Oct 2031 14:07:51.040      2840.3744907    Jupiter         Umbra       99            2840.3744907
16 Oct 2031 16:51:57.279    16 Oct 2031 17:39:19.335      2842.0561779    Jupiter         Umbra       100           2842.0561779
16 Oct 2031 20:23:23.898    16 Oct 2031 21:10:47.477      2843.5788411    Jupiter         Umbra       101           2843.5788411
16 Oct 2031 23:54:38.863    16 Oct 2031 23:54:50.423      11.559637939    Jupiter         Penumbra    102           2856.3115767
16 Oct 2031 23:54:50.423    17 Oct 2031 00:42:15.175      2844.7519388    Jupiter         Umbra       102           2856.3115767
17 Oct 2031 03:26:16.768    17 Oct 2031 04:13:42.224      2845.4560759    Jupiter         Umbra       103           2845.4560759
17 Oct 2031 06:57:42.888    17 Oct 2031 07:45:08.561      2845.6724993    Jupiter         Umbra       104           2845.6724993
17 Oct 2031 10:29:08.783    17 Oct 2031 11:16:34.268      2845.4851330    Jupiter         Umbra       105           2845.4851330
17 Oct 2031 14:00:34.497    17 Oct 2031 14:47:59.554      2845.0565156    Jupiter         Umbra       106           2845.0565156
17 Oct 2031 17:32:00.111    17 Oct 2031 18:19:24.697      2844.5859733    Jupiter         Umbra       107           2844.5859733
17 Oct 2031 21:03:25.714    17 Oct 2031 21:50:49.976      2844.2612492    Jupiter         Umbra       108           2844.2612492
18 Oct 2031 00:34:39.808    18 Oct 2031 00:34:51.391      11.583318911    Jupiter         Penumbra    109           2855.7973897
18 Oct 2031 00:34:51.391    18 Oct 2031 01:22:15.606      2844.2140708    Jupiter         Umbra       109           2855.7973897
18 Oct 2031 04:06:17.196    18 Oct 2031 04:53:41.686      2844.4899381    Jupiter         Umbra       110           2844.4899381
18 Oct 2031 07:37:43.139    18 Oct 2031 08:25:08.179      2845.0402488    Jupiter         Umbra       111           2845.0402488
18 Oct 2031 11:09:09.189    18 Oct 2031 11:56:34.929      2845.7402450    Jupiter         Umbra       112           2845.7402450
18 Oct 2031 14:40:35.283    18 Oct 2031 15:28:01.712      2846.4293110    Jupiter         Umbra       113           2846.4293110
18 Oct 2031 18:12:01.345    18 Oct 2031 18:59:28.308      2846.9626509    Jupiter         Umbra       114           2846.9626509
18 Oct 2031 21:43:27.313    18 Oct 2031 22:30:54.571      2847.2581815    Jupiter         Umbra       115           2847.2581815
19 Oct 2031 01:14:41.596    19 Oct 2031 01:14:53.157      11.560863792    Jupiter         Penumbra    116           2858.8850006
19 Oct 2031 01:14:53.157    19 Oct 2031 02:02:20.481      2847.3241368    Jupiter         Umbra       116           2858.8850006
19 Oct 2031 04:46:18.891    19 Oct 2031 05:33:46.151      2847.2598958    Jupiter         Umbra       117           2847.2598958
19 Oct 2031 08:17:44.572    19 Oct 2031 09:05:11.804      2847.2324637    Jupiter         Umbra       118           2847.2324637
19 Oct 2031 11:49:10.282    19 Oct 2031 12:36:37.716      2847.4345661    Jupiter         Umbra       119           2847.4345661
19 Oct 2031 15:20:36.114    19 Oct 2031 16:08:04.151      2848.0372987    Jupiter         Umbra       120           2848.0372987
19 Oct 2031 18:52:02.147    19 Oct 2031 19:39:31.294      2849.1468512    Jupiter         Umbra       121           2849.1468512
19 Oct 2031 22:23:28.425    19 Oct 2031 23:10:59.200      2850.7748919    Jupiter         Umbra       122           2850.7748919
20 Oct 2031 01:54:54.945    20 Oct 2031 02:42:27.777      2852.8314558    Jupiter         Umbra       123           2852.8314558
20 Oct 2031 05:26:21.657    20 Oct 2031 06:13:56.801      2855.1439759    Jupiter         Umbra       124           2855.1439759
20 Oct 2031 08:57:48.473    20 Oct 2031 09:45:25.971      2857.4988653    Jupiter         Umbra       125           2857.4988653
20 Oct 2031 12:29:15.293    20 Oct 2031 13:16:54.988      2859.6951073    Jupiter         Umbra       126           2859.6951073
20 Oct 2031 16:00:42.029    20 Oct 2031 16:48:23.623      2861.5946576    Jupiter         Umbra       127           2861.5946576
20 Oct 2031 19:32:08.626    20 Oct 2031 20:19:51.780      2863.1542297    Jupiter         Umbra       128           2863.1542297
20 Oct 2031 23:03:35.075    20 Oct 2031 23:51:19.504      2864.4296729    Jupiter         Umbra       129           2864.4296729
21 Oct 2031 02:35:01.411    21 Oct 2031 03:22:46.967      2865.5560706    Jupiter         Umbra       130           2865.5560706
21 Oct 2031 06:06:27.703    21 Oct 2031 06:54:14.411      2866.7079622    Jupiter         Umbra       131           2866.7079622
21 Oct 2031 09:37:54.034    21 Oct 2031 10:25:42.087      2868.0526384    Jupiter         Umbra       132           2868.0526384
21 Oct 2031 13:09:20.477    21 Oct 2031 13:57:10.182      2869.7049486    Jupiter         Umbra       133           2869.7049486
21 Oct 2031 16:40:47.079    21 Oct 2031 17:28:38.776      2871.6961210    Jupiter         Umbra       134           2871.6961210
21 Oct 2031 20:12:13.845    21 Oct 2031 21:00:07.808      2873.9630545    Jupiter         Umbra       135           2873.9630545
21 Oct 2031 23:43:40.733    22 Oct 2031 00:31:37.097      2876.3633382    Jupiter         Umbra       136           2876.3633382
22 Oct 2031 03:15:07.673    22 Oct 2031 04:03:06.386      2878.7137108    Jupiter         Umbra       137           2878.7137108
22 Oct 2031 06:46:34.577    22 Oct 2031 07:34:35.418      2880.8412528    Jupiter         Umbra       138           2890.5795373
22 Oct 2031 07:34:35.418    22 Oct 2031 07:34:45.156      9.7382845357    Jupiter         Penumbra    138           2890.5795373
22 Oct 2031 10:18:01.370    22 Oct 2031 11:06:04.002      2882.6317468    Jupiter         Umbra       139           2882.6317468
22 Oct 2031 13:49:28.009    22 Oct 2031 14:37:32.069      2884.0603770    Jupiter         Umbra       140           2884.0603770
22 Oct 2031 17:20:54.492    22 Oct 2031 18:08:59.688      2885.1963527    Jupiter         Umbra       141           2885.1963527
22 Oct 2031 20:52:20.859    22 Oct 2031 21:40:27.041      2886.1821695    Jupiter         Umbra       142           2886.1821695
23 Oct 2031 00:23:47.181    23 Oct 2031 01:11:54.376      2887.1947513    Jupiter         Umbra       143           2887.1947513
23 Oct 2031 03:55:13.539    23 Oct 2031 04:43:21.936      2888.3978158    Jupiter         Umbra       144           2888.3978158
23 Oct 2031 07:26:40.003    23 Oct 2031 08:14:49.900      2889.8972444    Jupiter         Umbra       145           2889.8972444
23 Oct 2031 10:58:06.614    23 Oct 2031 11:46:18.324      2891.7098338    Jupiter         Umbra       146           2891.7098338
23 Oct 2031 14:29:33.369    23 Oct 2031 15:17:47.122      2893.7527876    Jupiter         Umbra       147           2893.7527876
23 Oct 2031 18:01:00.219    23 Oct 2031 18:49:16.078      2895.8592386    Jupiter         Umbra       148           2895.8592386
23 Oct 2031 21:32:27.080    23 Oct 2031 22:20:44.898      2897.8185106    Jupiter         Umbra       149           2897.8185106
24 Oct 2031 01:03:53.854    24 Oct 2031 01:52:13.283      2899.4297402    Jupiter         Umbra       150           2899.4297402
24 Oct 2031 04:35:20.454    24 Oct 2031 05:23:41.007      2900.5531581    Jupiter         Umbra       151           2900.5531581
24 Oct 2031 08:06:46.825    24 Oct 2031 08:55:07.969      2901.1444412    Jupiter         Umbra       152           2901.1444412
24 Oct 2031 11:38:12.955    24 Oct 2031 12:26:34.219      2901.2630340    Jupiter         Umbra       153           2901.2630340
24 Oct 2031 15:09:38.881    24 Oct 2031 15:57:59.935      2901.0535734    Jupiter         Umbra       154           2901.0535734
24 Oct 2031 18:41:04.671    24 Oct 2031 19:29:25.379      2900.7075735    Jupiter         Umbra       155           2900.7075735
24 Oct 2031 22:12:30.412    24 Oct 2031 23:00:50.828      2900.4167074    Jupiter         Umbra       156           2900.4167074
25 Oct 2031 01:43:56.186    25 Oct 2031 02:32:16.513      2900.3263777    Jupiter         Umbra       157           2900.3263777
25 Oct 2031 05:15:22.053    25 Oct 2031 06:03:42.554      2900.5014597    Jupiter         Umbra       158           2900.5014597
25 Oct 2031 08:46:48.030    25 Oct 2031 09:35:08.943      2900.9129743    Jupiter         Umbra       159           2900.9129743
25 Oct 2031 12:18:14.097    25 Oct 2031 13:06:35.547      2901.4505462    Jupiter         Umbra       160           2901.4505462
25 Oct 2031 15:49:40.195    25 Oct 2031 16:38:02.153      2901.9583135    Jupiter         Umbra       161           2901.9583135
25 Oct 2031 19:21:06.252    25 Oct 2031 20:09:28.538      2902.2855051    Jupiter         Umbra       162           2902.2855051
25 Oct 2031 22:52:32.204    25 Oct 2031 23:40:54.539      2902.3354042    Jupiter         Umbra       163           2902.3354042
26 Oct 2031 02:23:58.014    26 Oct 2031 03:12:20.112      2902.0974912    Jupiter         Umbra       164           2902.0974912
26 Oct 2031 05:55:23.688    26 Oct 2031 06:43:45.343      2901.6542824    Jupiter         Umbra       165           2901.6542824
26 Oct 2031 09:26:49.273    26 Oct 2031 10:15:10.435      2901.1625323    Jupiter         Umbra       166           2901.1625323
26 Oct 2031 12:58:14.845    26 Oct 2031 13:46:35.660      2900.8152531    Jupiter         Umbra       167           2900.8152531
26 Oct 2031 16:29:40.495    26 Oct 2031 17:18:01.290      2900.7946889    Jupiter         Umbra       168           2900.7946889
26 Oct 2031 20:01:06.305    26 Oct 2031 20:49:27.533      2901.2271555    Jupiter         Umbra       169           2901.2271555
26 Oct 2031 23:32:32.329    27 Oct 2031 00:20:54.478      2902.1496202    Jupiter         Umbra       170           2902.1496202
27 Oct 2031 03:03:58.573    27 Oct 2031 03:52:22.070      2903.4970191    Jupiter         Umbra       171           2903.4970191
27 Oct 2031 06:35:25.001    27 Oct 2031 07:23:50.117      2905.1153781    Jupiter         Umbra       172           2905.1153781
27 Oct 2031 10:06:51.535    27 Oct 2031 10:55:18.335      2906.7994799    Jupiter         Umbra       173           2906.7994799
27 Oct 2031 13:38:18.081    27 Oct 2031 14:26:46.425      2908.3448007    Jupiter         Umbra       174           2908.3448007
27 Oct 2031 17:09:44.548    27 Oct 2031 17:58:14.148      2909.5999211    Jupiter         Umbra       175           2909.5999211
27 Oct 2031 20:41:10.877    27 Oct 2031 21:29:41.379      2910.5023221    Jupiter         Umbra       176           2910.5023221
28 Oct 2031 00:12:37.050    28 Oct 2031 01:01:08.139      2911.0889778    Jupiter         Umbra       177           2911.0889778
28 Oct 2031 03:44:03.093    28 Oct 2031 04:32:34.575      2911.4812005    Jupiter         Umbra       178           2911.4812005
28 Oct 2031 07:15:29.069    28 Oct 2031 08:04:00.918      2911.8492828    Jupiter         Umbra       179           2911.8492828
28 Oct 2031 10:46:55.056    28 Oct 2031 11:35:27.423      2912.3664301    Jupiter         Umbra       180           2912.3664301
28 Oct 2031 14:18:21.132    28 Oct 2031 15:06:54.295      2913.1629538    Jupiter         Umbra       181           2913.1629538
28 Oct 2031 17:49:47.350    28 Oct 2031 18:38:21.641      2914.2912795    Jupiter         Umbra       182           2914.2912795
28 Oct 2031 21:21:13.724    28 Oct 2031 22:09:49.435      2915.7102858    Jupiter         Umbra       183           2915.7102858
29 Oct 2031 00:52:40.227    29 Oct 2031 01:41:17.521      2917.2949250    Jupiter         Umbra       184           2917.2949250
29 Oct 2031 04:24:06.792    29 Oct 2031 05:12:45.662      2918.8702742    Jupiter         Umbra       185           2918.8702742
29 Oct 2031 07:55:33.337    29 Oct 2031 08:44:13.599      2920.2611733    Jupiter         Umbra       186           2920.2611733
29 Oct 2031 11:26:59.787    29 Oct 2031 12:15:41.129      2921.3416662    Jupiter         Umbra       187           2921.3416662
29 Oct 2031 14:58:26.092    29 Oct 2031 15:47:08.162      2922.0697602    Jupiter         Umbra       188           2922.0697602
29 Oct 2031 18:29:52.242    29 Oct 2031 19:18:34.739      2922.4976170    Jupiter         Umbra       189           2922.4976170
29 Oct 2031 22:01:18.268    29 Oct 2031 22:50:01.024      2922.7559137    Jupiter         Umbra       190           2922.7559137
30 Oct 2031 01:32:44.238    30 Oct 2031 02:21:27.256      2923.0183827    Jupiter         Umbra       191           2923.0183827
30 Oct 2031 05:04:10.230    30 Oct 2031 05:52:53.686      2923.4559822    Jupiter         Umbra       192           2923.4559822
30 Oct 2031 08:35:36.320    30 Oct 2031 09:24:20.511      2924.1912981    Jupiter         Umbra       193           2924.1912981
30 Oct 2031 12:07:02.556    30 Oct 2031 12:55:47.820      2925.2635363    Jupiter         Umbra       194           2925.2635363
30 Oct 2031 15:38:28.947    30 Oct 2031 16:27:15.560      2926.6130920    Jupiter         Umbra       195           2926.6130920
30 Oct 2031 19:09:55.454    30 Oct 2031 19:58:43.545      2928.0916409    Jupiter         Umbra       196           2928.0916409
30 Oct 2031 22:41:22.001    30 Oct 2031 23:30:11.499      2929.4977204    Jupiter         Umbra       197           2929.4977204
31 Oct 2031 02:12:48.494    31 Oct 2031 03:01:39.122      2930.6277359    Jupiter         Umbra       198           2930.6277359
31 Oct 2031 05:44:14.843    31 Oct 2031 06:33:06.172      2931.3286236    Jupiter         Umbra       199           2931.3286236
31 Oct 2031 09:15:40.985    31 Oct 2031 10:04:32.521      2931.5358600    Jupiter         Umbra       200           2931.5358600
31 Oct 2031 12:47:06.900    31 Oct 2031 13:35:58.187      2931.2871023    Jupiter         Umbra       201           2931.2871023
31 Oct 2031 16:18:32.612    31 Oct 2031 17:07:23.321      2930.7090352    Jupiter         Umbra       202           2930.7090352
31 Oct 2031 19:49:58.185    31 Oct 2031 20:38:48.168      2929.9838367    Jupiter         Umbra       203           2929.9838367
31 Oct 2031 23:21:23.701    01 Nov 2031 00:10:13.005      2929.3039193    Jupiter         Umbra       204           2929.3039193
01 Nov 2031 02:52:49.246    01 Nov 2031 03:41:38.072      2928.8252707    Jupiter         Umbra       205           2928.8252707
01 Nov 2031 06:24:14.884    01 Nov 2031 07:13:03.515      2928.6303726    Jupiter         Umbra       206           2928.6303726
01 Nov 2031 09:55:40.644    01 Nov 2031 10:44:29.354      2928.7102153    Jupiter         Umbra       207           2928.7102153
01 Nov 2031 13:27:06.511    01 Nov 2031 14:15:55.482      2928.9710568    Jupiter         Umbra       208           2928.9710568
01 Nov 2031 16:58:32.435    01 Nov 2031 17:47:21.700      2929.2656607    Jupiter         Umbra       209           2929.2656607
01 Nov 2031 20:29:58.346    01 Nov 2031 21:18:47.787      2929.4414041    Jupiter         Umbra       210           2929.4414041
02 Nov 2031 00:01:24.176    02 Nov 2031 00:50:13.567      2929.3902232    Jupiter         Umbra       211           2929.3902232
02 Nov 2031 03:32:49.885    02 Nov 2031 04:21:38.968      2929.0837165    Jupiter         Umbra       212           2929.0837165
02 Nov 2031 07:04:15.467    02 Nov 2031 07:53:04.053      2928.5856805    Jupiter         Umbra       213           2928.5856805
02 Nov 2031 10:35:40.962    02 Nov 2031 11:24:29.001      2928.0384646    Jupiter         Umbra       214           2928.0384646
02 Nov 2031 14:07:06.443    02 Nov 2031 14:55:54.072      2927.6289529    Jupiter         Umbra       215           2927.6289529
02 Nov 2031 17:38:31.999    02 Nov 2031 18:27:19.543      2927.5438284    Jupiter         Umbra       216           2927.5438284
02 Nov 2031 21:09:57.716    02 Nov 2031 21:58:45.640      2927.9237178    Jupiter         Umbra       217           2927.9237178
03 Nov 2031 00:41:23.656    03 Nov 2031 01:30:12.482      2928.8267248    Jupiter         Umbra       218           2928.8267248
03 Nov 2031 04:12:49.837    03 Nov 2031 05:01:40.048      2930.2109684    Jupiter         Umbra       219           2930.2109684
03 Nov 2031 07:44:16.231    03 Nov 2031 08:33:08.173      2931.9421122    Jupiter         Umbra       220           2931.9421122
03 Nov 2031 11:15:42.770    03 Nov 2031 12:04:36.596      2933.8256805    Jupiter         Umbra       221           2943.3097482
03 Nov 2031 12:04:36.596    03 Nov 2031 12:04:46.080      9.4840676989    Jupiter         Penumbra    221           2943.3097482
03 Nov 2031 14:47:09.361    03 Nov 2031 15:36:05.017      2935.6565315    Jupiter         Umbra       222           2935.6565315
03 Nov 2031 18:18:35.912    03 Nov 2031 19:07:33.183      2937.2713506    Jupiter         Umbra       223           2937.2713506
03 Nov 2031 21:50:02.356    03 Nov 2031 22:39:00.944      2938.5878360    Jupiter         Umbra       224           2938.5878360
04 Nov 2031 01:21:28.666    04 Nov 2031 02:10:28.286      2939.6206752    Jupiter         Umbra       225           2939.6206752
04 Nov 2031 04:52:54.858    04 Nov 2031 05:41:55.330      2940.4716834    Jupiter         Umbra       226           2940.4716834
04 Nov 2031 08:24:20.988    04 Nov 2031 09:13:22.288      2941.2996517    Jupiter         Umbra       227           2941.2996517
04 Nov 2031 11:55:47.132    04 Nov 2031 12:44:49.408      2942.2757535    Jupiter         Umbra       228           2942.2757535
04 Nov 2031 15:27:13.368    04 Nov 2031 16:16:16.907      2943.5385050    Jupiter         Umbra       229           2943.5385050
04 Nov 2031 18:58:39.755    04 Nov 2031 19:47:44.911      2945.1561109    Jupiter         Umbra       230           2945.1561109
04 Nov 2031 22:30:06.314    04 Nov 2031 23:19:13.420      2947.1057936    Jupiter         Umbra       231           2947.1057936
05 Nov 2031 02:01:33.025    05 Nov 2031 02:50:42.303      2949.2779736    Jupiter         Umbra       232           2949.2779736
05 Nov 2031 05:32:59.829    05 Nov 2031 06:22:11.335      2951.5055717    Jupiter         Umbra       233           2951.5055717
05 Nov 2031 09:04:26.645    05 Nov 2031 09:53:40.256      2953.6104297    Jupiter         Umbra       234           2953.6104297
05 Nov 2031 12:35:53.394    05 Nov 2031 13:25:08.848      2955.4531375    Jupiter         Umbra       235           2955.4531375
05 Nov 2031 16:07:20.020    05 Nov 2031 16:56:36.991      2956.9712142    Jupiter         Umbra       236           2956.9712142
05 Nov 2031 19:38:46.503    05 Nov 2031 20:28:04.697      2958.1945636    Jupiter         Umbra       237           2958.1945636
05 Nov 2031 23:10:12.866    05 Nov 2031 23:59:32.101      2959.2351252    Jupiter         Umbra       238           2959.2351252
06 Nov 2031 02:41:39.168    06 Nov 2031 03:30:59.424      2960.2561403    Jupiter         Umbra       239           2960.2561403
06 Nov 2031 06:13:05.485    06 Nov 2031 07:02:26.914      2961.4284320    Jupiter         Umbra       240           2961.4284320
06 Nov 2031 09:44:31.894    06 Nov 2031 10:33:54.779      2962.8847143    Jupiter         Umbra       241           2962.8847143
06 Nov 2031 13:15:58.449    06 Nov 2031 14:05:23.131      2964.6814394    Jupiter         Umbra       242           2964.6814394
06 Nov 2031 16:47:25.165    06 Nov 2031 17:36:51.944      2966.7786148    Jupiter         Umbra       243           2966.7786148
06 Nov 2031 20:18:52.013    06 Nov 2031 21:08:21.057      2969.0441358    Jupiter         Umbra       244           2969.0441358
06 Nov 2031 23:50:18.922    07 Nov 2031 00:39:50.206      2971.2837554    Jupiter         Umbra       245           2971.2837554
07 Nov 2031 03:21:45.801    07 Nov 2031 04:11:19.091      2973.2893973    Jupiter         Umbra       246           2973.2893973
07 Nov 2031 06:53:12.557    07 Nov 2031 07:42:47.449      2974.8919641    Jupiter         Umbra       247           2974.8919641
07 Nov 2031 10:24:39.120    07 Nov 2031 11:14:15.123      2976.0030367    Jupiter         Umbra       248           2976.0030367
07 Nov 2031 13:56:05.459    07 Nov 2031 14:45:42.093      2976.6337974    Jupiter         Umbra       249           2976.6337974
07 Nov 2031 17:27:31.589    07 Nov 2031 18:17:08.477      2976.8876597    Jupiter         Umbra       250           2976.8876597
07 Nov 2031 20:58:57.563    07 Nov 2031 21:48:34.495      2976.9316030    Jupiter         Umbra       251           2976.9316030
08 Nov 2031 00:30:23.458    08 Nov 2031 01:20:00.412      2976.9538029    Jupiter         Umbra       252           2976.9538029
08 Nov 2031 04:01:49.357    08 Nov 2031 04:51:26.473      2977.1162895    Jupiter         Umbra       253           2977.1162895
08 Nov 2031 07:33:15.326    08 Nov 2031 08:22:52.842      2977.5156304    Jupiter         Umbra       254           2977.5156304
08 Nov 2031 11:04:41.400    08 Nov 2031 11:54:19.561      2978.1602375    Jupiter         Umbra       255           2978.1602375
08 Nov 2031 14:36:07.573    08 Nov 2031 15:25:46.544      2978.9710571    Jupiter         Umbra       256           2978.9710571
08 Nov 2031 18:07:33.799    08 Nov 2031 18:57:13.607      2979.8079560    Jupiter         Umbra       257           2979.8079560
08 Nov 2031 21:39:00.012    08 Nov 2031 22:28:40.527      2980.5152413    Jupiter         Umbra       258           2980.5152413
09 Nov 2031 01:10:26.142    09 Nov 2031 02:00:07.114      2980.9715775    Jupiter         Umbra       259           2980.9715775
09 Nov 2031 04:41:52.142    09 Nov 2031 05:31:33.271      2981.1290387    Jupiter         Umbra       260           2981.1290387
09 Nov 2031 08:13:17.999    09 Nov 2031 09:02:59.030      2981.0306259    Jupiter         Umbra       261           2981.0306259
09 Nov 2031 11:44:32.984    09 Nov 2031 11:44:43.743      10.759525979    Jupiter         Penumbra    262           2991.5619766
09 Nov 2031 11:44:43.743    09 Nov 2031 12:34:24.545      2980.8024506    Jupiter         Umbra       262           2991.5619766
09 Nov 2031 15:16:09.438    09 Nov 2031 16:05:50.062      2980.6239821    Jupiter         Umbra       263           2980.6239821
09 Nov 2031 18:47:35.168    09 Nov 2031 19:37:15.853      2980.6850465    Jupiter         Umbra       264           2980.6850465
09 Nov 2031 22:19:01.021    09 Nov 2031 23:08:42.161      2981.1401204    Jupiter         Umbra       265           2981.1401204
10 Nov 2031 01:50:27.062    10 Nov 2031 02:40:09.131      2982.0685019    Jupiter         Umbra       266           2982.0685019
10 Nov 2031 05:21:53.319    10 Nov 2031 06:11:36.771      2983.4517919    Jupiter         Umbra       267           2983.4517919
10 Nov 2031 08:53:19.775    10 Nov 2031 09:43:04.951      2985.1758131    Jupiter         Umbra       268           2985.1758131
10 Nov 2031 12:24:35.658    10 Nov 2031 12:24:46.370      10.712344456    Jupiter         Penumbra    269           2997.7698469
10 Nov 2031 12:24:46.370    10 Nov 2031 13:14:33.428      2987.0575024    Jupiter         Umbra       269           2997.7698469
10 Nov 2031 15:56:13.017    10 Nov 2031 16:46:01.909      2988.8918455    Jupiter         Umbra       270           2988.8918455
10 Nov 2031 19:27:39.625    10 Nov 2031 20:17:30.129      2990.5045819    Jupiter         Umbra       271           2990.5045819
10 Nov 2031 22:59:06.123    10 Nov 2031 23:48:57.918      2991.7947397    Jupiter         Umbra       272           2991.7947397
11 Nov 2031 02:30:32.476    11 Nov 2031 03:20:25.232      2992.7559125    Jupiter         Umbra       273           2992.7559125
11 Nov 2031 06:01:58.691    11 Nov 2031 06:51:52.163      2993.4722961    Jupiter         Umbra       274           2993.4722961
11 Nov 2031 09:33:24.814    11 Nov 2031 10:23:18.907      2994.0922887    Jupiter         Umbra       275           2994.0922887
11 Nov 2031 13:04:40.249    11 Nov 2031 13:04:50.918      10.668573319    Jupiter         Penumbra    276           3005.4559391
11 Nov 2031 13:04:50.918    11 Nov 2031 13:54:45.705      2994.7873658    Jupiter         Umbra       276           3005.4559391
11 Nov 2031 16:36:17.078    11 Nov 2031 17:26:12.784      2995.7063315    Jupiter         Umbra       277           2995.7063315
11 Nov 2031 20:07:43.357    11 Nov 2031 20:57:40.293      2996.9351174    Jupiter         Umbra       278           2996.9351174
11 Nov 2031 23:39:09.786    12 Nov 2031 00:29:08.258      2998.4717862    Jupiter         Umbra       279           2998.4717862
12 Nov 2031 03:10:36.354    12 Nov 2031 04:00:36.579      3000.2251795    Jupiter         Umbra       280           3000.2251795
12 Nov 2031 06:42:03.009    12 Nov 2031 07:32:05.048      3002.0390873    Jupiter         Umbra       281           3002.0390873
12 Nov 2031 10:13:29.677    12 Nov 2031 11:03:33.413      3003.7359946    Jupiter         Umbra       282           3003.7359946
12 Nov 2031 13:44:56.279    12 Nov 2031 14:35:01.446      3005.1669571    Jupiter         Umbra       283           3005.1669571
12 Nov 2031 17:16:22.754    12 Nov 2031 18:06:29.008      3006.2532492    Jupiter         Umbra       284           3006.2532492
12 Nov 2031 20:47:49.077    12 Nov 2031 21:37:56.084      3007.0064720    Jupiter         Umbra       285           3007.0064720
13 Nov 2031 00:19:15.263    13 Nov 2031 01:09:22.786      3007.5237444    Jupiter         Umbra       286           3007.5237444
13 Nov 2031 03:50:41.361    13 Nov 2031 04:40:49.322      3007.9611439    Jupiter         Umbra       287           3007.9611439
13 Nov 2031 07:22:07.445    13 Nov 2031 08:12:15.938      3008.4926205    Jupiter         Umbra       288           3008.4926205
13 Nov 2031 10:53:33.594    13 Nov 2031 11:43:42.857      3009.2638853    Jupiter         Umbra       289           3009.2638853
13 Nov 2031 14:24:59.865    13 Nov 2031 15:15:10.217      3010.3518817    Jupiter         Umbra       290           3010.3518817
13 Nov 2031 17:56:26.285    13 Nov 2031 18:46:38.025      3011.7399858    Jupiter         Umbra       291           3011.7399858
13 Nov 2031 21:27:52.834    13 Nov 2031 22:18:06.151      3013.3168035    Jupiter         Umbra       292           3013.3168035
14 Nov 2031 00:59:19.454    14 Nov 2031 01:49:34.355      3014.9009266    Jupiter         Umbra       293           3014.9009266
14 Nov 2031 04:30:46.056    14 Nov 2031 05:21:02.343      3016.2860743    Jupiter         Umbra       294           3016.2860743
14 Nov 2031 08:02:12.550    14 Nov 2031 08:52:29.844      3017.2940872    Jupiter         Umbra       295           3017.2940872
14 Nov 2031 11:33:38.861    14 Nov 2031 12:23:56.680      3017.8191434    Jupiter         Umbra       296           3017.8191434
14 Nov 2031 15:05:04.950    14 Nov 2031 15:55:22.802      3017.8515430    Jupiter         Umbra       297           3017.8515430
14 Nov 2031 18:36:30.823    14 Nov 2031 19:26:48.299      3017.4762905    Jupiter         Umbra       298           3017.4762905
14 Nov 2031 22:07:56.523    14 Nov 2031 22:58:13.372      3016.8488560    Jupiter         Umbra       299           3016.8488560
15 Nov 2031 01:39:22.123    15 Nov 2031 02:29:38.278      3016.1551600    Jupiter         Umbra       300           3016.1551600
15 Nov 2031 05:10:47.705    15 Nov 2031 06:01:03.270      3015.5654561    Jupiter         Umbra       301           3015.5654561
15 Nov 2031 08:42:13.339    15 Nov 2031 09:32:28.532      3015.1927325    Jupiter         Umbra       302           3015.1927325
15 Nov 2031 12:13:39.068    15 Nov 2031 13:03:54.134      3015.0657379    Jupiter         Umbra       303           3015.0657379
15 Nov 2031 15:45:04.894    15 Nov 2031 16:35:20.019      3015.1244669    Jupiter         Umbra       304           3015.1244669
15 Nov 2031 19:16:30.781    15 Nov 2031 20:06:46.023      3015.2414712    Jupiter         Umbra       305           3015.2414712
15 Nov 2031 22:47:56.666    15 Nov 2031 23:38:11.931      3015.2644349    Jupiter         Umbra       306           3015.2644349
16 Nov 2031 02:19:22.481    16 Nov 2031 03:09:37.546      3015.0650596    Jupiter         Umbra       307           3015.0650596
16 Nov 2031 05:50:48.174    16 Nov 2031 06:41:02.756      3014.5813492    Jupiter         Umbra       308           3014.5813492
16 Nov 2031 09:22:13.726    16 Nov 2031 10:12:27.565      3013.8394187    Jupiter         Umbra       309           3013.8394187
16 Nov 2031 12:53:39.157    16 Nov 2031 13:43:52.108      3012.9507970    Jupiter         Umbra       310           3012.9507970
16 Nov 2031 16:25:04.526    16 Nov 2031 17:15:16.614      3012.0872192    Jupiter         Umbra       311           3012.0872192
16 Nov 2031 19:56:29.916    16 Nov 2031 20:46:41.357      3011.4407469    Jupiter         Umbra       312           3011.4407469
16 Nov 2031 23:27:55.415    17 Nov 2031 00:18:06.593      3011.1779214    Jupiter         Umbra       313           3011.1779214
17 Nov 2031 02:59:21.096    17 Nov 2031 03:49:32.494      3011.3982902    Jupiter         Umbra       314           3011.3982902
17 Nov 2031 06:30:46.998    17 Nov 2031 07:20:59.105      3012.1078122    Jupiter         Umbra       315           3012.1078122
17 Nov 2031 10:02:13.114    17 Nov 2031 10:52:26.329      3013.2151796    Jupiter         Umbra       316           3013.2151796
17 Nov 2031 13:33:39.396    17 Nov 2031 14:23:53.949      3014.5537517    Jupiter         Umbra       317           3014.5537517
17 Nov 2031 17:05:05.762    17 Nov 2031 17:55:21.686      3015.9244984    Jupiter         Umbra       318           3015.9244984
17 Nov 2031 20:36:32.122    17 Nov 2031 21:26:49.270      3017.1479554    Jupiter         Umbra       319           3017.1479554
18 Nov 2031 00:07:58.402    18 Nov 2031 00:58:16.511      3018.1091306    Jupiter         Umbra       320           3018.1091306
18 Nov 2031 03:39:24.559    18 Nov 2031 04:29:43.341      3018.7827880    Jupiter         Umbra       321           3018.7827880
18 Nov 2031 07:10:50.591    18 Nov 2031 08:01:09.826      3019.2352014    Jupiter         Umbra       322           3019.2352014
18 Nov 2031 10:42:16.538    18 Nov 2031 11:32:36.140      3019.6021364    Jupiter         Umbra       323           3019.6021364
18 Nov 2031 14:13:42.467    18 Nov 2031 15:04:02.518      3020.0510615    Jupiter         Umbra       324           3020.0510615
18 Nov 2031 17:45:08.456    18 Nov 2031 18:35:29.192      3020.7368881    Jupiter         Umbra       325           3020.7368881
18 Nov 2031 21:16:34.571    18 Nov 2031 22:06:56.331      3021.7599275    Jupiter         Umbra       326           3021.7599275
19 Nov 2031 00:48:00.852    19 Nov 2031 01:38:23.990      3023.1372944    Jupiter         Umbra       327           3023.1372944
19 Nov 2031 04:19:27.296    19 Nov 2031 05:09:52.093      3024.7966220    Jupiter         Umbra       328           3024.7966220
19 Nov 2031 07:50:53.861    19 Nov 2031 08:41:20.456      3026.5949690    Jupiter         Umbra       329           3026.5949690
19 Nov 2031 11:22:20.476    19 Nov 2031 12:12:48.834      3028.3584879    Jupiter         Umbra       330           3028.3584879
19 Nov 2031 14:53:47.060    19 Nov 2031 15:44:16.992      3029.9315790    Jupiter         Umbra       331           3029.9315790
19 Nov 2031 18:25:13.550    19 Nov 2031 19:15:44.770      3031.2203777    Jupiter         Umbra       332           3031.2203777
19 Nov 2031 21:56:39.910    19 Nov 2031 22:47:12.127      3032.2169392    Jupiter         Umbra       333           3032.2169392
20 Nov 2031 01:28:06.148    20 Nov 2031 02:18:39.148      3032.9998258    Jupiter         Umbra       334           3032.9998258
20 Nov 2031 04:59:32.307    20 Nov 2031 05:50:06.019      3033.7122201    Jupiter         Umbra       335           3033.7122201
20 Nov 2031 08:30:58.456    20 Nov 2031 09:21:32.981      3034.5246207    Jupiter         Umbra       336           3034.5246207
20 Nov 2031 12:02:24.675    20 Nov 2031 12:53:00.264      3035.5888513    Jupiter         Umbra       337           3035.5888513
20 Nov 2031 15:33:51.027    20 Nov 2031 16:24:28.024      3036.9968413    Jupiter         Umbra       338           3036.9968413
20 Nov 2031 19:05:17.546    20 Nov 2031 19:55:56.298      3038.7519659    Jupiter         Umbra       339           3038.7519659
20 Nov 2031 22:36:44.222    20 Nov 2031 23:27:24.984      3040.7620605    Jupiter         Umbra       340           3040.7620605
21 Nov 2031 02:08:11.002    21 Nov 2031 02:58:53.861      3042.8587160    Jupiter         Umbra       341           3042.8587160
21 Nov 2031 05:39:37.804    21 Nov 2031 06:30:22.643      3044.8385861    Jupiter         Umbra       342           3044.8385861
21 Nov 2031 09:11:04.534    21 Nov 2031 10:01:51.049      3046.5147243    Jupiter         Umbra       343           3046.5147243
21 Nov 2031 12:42:31.113    21 Nov 2031 13:33:18.876      3047.7627191    Jupiter         Umbra       344           3047.7627191
21 Nov 2031 16:13:57.493    21 Nov 2031 17:04:46.041      3048.5488462    Jupiter         Umbra       345           3048.5488462
21 Nov 2031 19:45:23.668    21 Nov 2031 20:36:12.602      3048.9340653    Jupiter         Umbra       346           3048.9340653
21 Nov 2031 23:16:49.674    22 Nov 2031 00:07:38.729      3049.0550991    Jupiter         Umbra       347           3049.0550991
22 Nov 2031 02:48:15.576    22 Nov 2031 03:39:04.664      3049.0877873    Jupiter         Umbra       348           3049.0877873
22 Nov 2031 06:19:41.455    22 Nov 2031 07:10:30.658      3049.2028170    Jupiter         Umbra       349           3049.2028170
22 Nov 2031 09:51:07.382    22 Nov 2031 10:41:56.905      3049.5227031    Jupiter         Umbra       350           3049.5227031
22 Nov 2031 13:22:33.406    22 Nov 2031 14:13:23.497      3050.0912532    Jupiter         Umbra       351           3050.0912532
22 Nov 2031 16:53:59.534    22 Nov 2031 17:44:50.397      3050.8637584    Jupiter         Umbra       352           3050.8637584
22 Nov 2031 20:25:25.737    22 Nov 2031 21:16:17.460      3051.7232224    Jupiter         Umbra       353           3051.7232224
22 Nov 2031 23:56:51.955    23 Nov 2031 00:47:44.474      3052.5183907    Jupiter         Umbra       354           3052.5183907
23 Nov 2031 03:28:18.120    23 Nov 2031 04:19:11.232      3053.1119407    Jupiter         Umbra       355           3053.1119407
23 Nov 2031 06:59:44.174    23 Nov 2031 07:50:37.598      3053.4242391    Jupiter         Umbra       356           3053.4242391
23 Nov 2031 10:31:10.090    23 Nov 2031 11:22:03.550      3053.4599165    Jupiter         Umbra       357           3053.4599165
23 Nov 2031 14:02:35.879    23 Nov 2031 14:53:29.189      3053.3104007    Jupiter         Umbra       358           3053.3104007
23 Nov 2031 17:34:01.591    23 Nov 2031 18:24:54.724      3053.1334076    Jupiter         Umbra       359           3053.1334076
23 Nov 2031 21:05:27.304    23 Nov 2031 21:56:20.421      3053.1166511    Jupiter         Umbra       360           3053.1166511
24 Nov 2031 00:36:53.104    24 Nov 2031 01:27:46.538      3053.4333242    Jupiter         Umbra       361           3053.4333242
24 Nov 2031 04:08:19.068    24 Nov 2031 04:59:13.267      3054.1984365    Jupiter         Umbra       362           3054.1984365
24 Nov 2031 07:39:45.241    24 Nov 2031 08:30:40.680      3055.4387907    Jupiter         Umbra       363           3055.4387907
24 Nov 2031 11:11:11.626    24 Nov 2031 12:02:08.710      3057.0836590    Jupiter         Umbra       364           3057.0836590
24 Nov 2031 14:42:38.182    24 Nov 2031 15:33:37.163      3058.9809279    Jupiter         Umbra       365           3058.9809279
24 Nov 2031 18:14:04.833    24 Nov 2031 19:05:05.769      3060.9361401    Jupiter         Umbra       366           3060.9361401
24 Nov 2031 21:45:31.492    24 Nov 2031 22:36:34.255      3062.7630570    Jupiter         Umbra       367           3062.7630570
25 Nov 2031 01:16:58.078    25 Nov 2031 02:08:02.409      3064.3302671    Jupiter         Umbra       368           3064.3302671
25 Nov 2031 04:48:24.543    25 Nov 2031 05:39:30.134      3065.5911478    Jupiter         Umbra       369           3065.5911478
25 Nov 2031 08:19:50.875    25 Nov 2031 09:10:57.466      3066.5905860    Jupiter         Umbra       370           3066.5905860
25 Nov 2031 11:51:17.105    25 Nov 2031 12:42:24.553      3067.4484809    Jupiter         Umbra       371           3067.4484809
25 Nov 2031 15:22:43.293    25 Nov 2031 16:13:51.619      3068.3254841    Jupiter         Umbra       372           3068.3254841
25 Nov 2031 18:54:09.514    25 Nov 2031 19:45:18.894      3069.3796237    Jupiter         Umbra       373           3069.3796237
25 Nov 2031 22:25:35.837    25 Nov 2031 23:16:46.560      3070.7234940    Jupiter         Umbra       374           3070.7234940
26 Nov 2031 01:57:02.304    26 Nov 2031 02:48:14.696      3072.3919495    Jupiter         Umbra       375           3072.3919495
26 Nov 2031 05:28:28.922    26 Nov 2031 06:19:43.253      3074.3303908    Jupiter         Umbra       376           3074.3303908
26 Nov 2031 08:59:55.656    26 Nov 2031 09:51:12.065      3076.4085598    Jupiter         Umbra       377           3076.4085598
26 Nov 2031 12:31:22.441    26 Nov 2031 13:22:40.897      3078.4558537    Jupiter         Umbra       378           3078.4558537
26 Nov 2031 16:02:49.197    26 Nov 2031 16:54:09.507      3080.3098142    Jupiter         Umbra       379           3080.3098142
26 Nov 2031 19:34:15.857    26 Nov 2031 20:25:37.718      3081.8610807    Jupiter         Umbra       380           3081.8610807
26 Nov 2031 23:05:42.380    26 Nov 2031 23:57:05.462      3083.0819420    Jupiter         Umbra       381           3083.0819420
27 Nov 2031 02:37:08.764    27 Nov 2031 03:28:32.796      3084.0322511    Jupiter         Umbra       382           3084.0322511
27 Nov 2031 06:08:35.044    27 Nov 2031 06:59:59.886      3084.8425993    Jupiter         Umbra       383           3084.8425993
27 Nov 2031 09:40:01.284    27 Nov 2031 10:31:26.964      3085.6797025    Jupiter         Umbra       384           3085.6797025
27 Nov 2031 13:11:27.560    27 Nov 2031 14:02:54.263      3086.7024093    Jupiter         Umbra       385           3086.7024093
27 Nov 2031 16:42:53.940    27 Nov 2031 17:34:21.959      3088.0184402    Jupiter         Umbra       386           3088.0184402
27 Nov 2031 20:14:20.464    27 Nov 2031 21:05:50.116      3089.6520412    Jupiter         Umbra       387           3089.6520412
27 Nov 2031 23:45:47.130    28 Nov 2031 00:37:18.662      3091.5317113    Jupiter         Umbra       388           3091.5317113
28 Nov 2031 03:17:13.897    28 Nov 2031 04:08:47.401      3093.5039742    Jupiter         Umbra       389           3093.5039742
28 Nov 2031 06:48:40.688    28 Nov 2031 07:40:16.058      3095.3705955    Jupiter         Umbra       390           3095.3705955
28 Nov 2031 10:20:07.412    28 Nov 2031 11:11:44.350      3096.9384607    Jupiter         Umbra       391           3096.9384607
28 Nov 2031 13:51:33.987    28 Nov 2031 14:43:12.055      3098.0673987    Jupiter         Umbra       392           3098.0673987
28 Nov 2031 17:23:00.360    28 Nov 2031 18:14:39.062      3098.7027924    Jupiter         Umbra       393           3107.3974583
28 Nov 2031 18:14:39.062    28 Nov 2031 18:14:47.757      8.6946659256    Jupiter         Penumbra    393           3107.3974583
28 Nov 2031 20:54:26.514    28 Nov 2031 21:46:05.399      3098.8847920    Jupiter         Umbra       394           3098.8847920
29 Nov 2031 00:25:52.477    29 Nov 2031 01:17:31.211      3098.7341654    Jupiter         Umbra       395           3098.7341654
29 Nov 2031 03:57:18.307    29 Nov 2031 04:48:56.727      3098.4197404    Jupiter         Umbra       396           3098.4197404
29 Nov 2031 07:28:44.079    29 Nov 2031 08:20:22.195      3098.1153289    Jupiter         Umbra       397           3098.1153289
29 Nov 2031 11:00:09.868    29 Nov 2031 11:51:47.824      3097.9558636    Jupiter         Umbra       398           3097.9558636
29 Nov 2031 14:31:35.725    29 Nov 2031 15:23:13.729      3098.0032614    Jupiter         Umbra       399           3098.0032614
29 Nov 2031 18:03:01.668    29 Nov 2031 18:54:39.900      3098.2318170    Jupiter         Umbra       400           3106.9443446
29 Nov 2031 18:54:39.900    29 Nov 2031 18:54:48.612      8.7125275517    Jupiter         Penumbra    400           3106.9443446
29 Nov 2031 21:34:27.674    29 Nov 2031 22:26:06.214      3098.5391058    Jupiter         Umbra       401           3098.5391058
30 Nov 2031 01:05:53.691    30 Nov 2031 01:57:32.471      3098.7798307    Jupiter         Umbra       402           3098.7798307
30 Nov 2031 04:37:19.652    30 Nov 2031 05:28:58.465      3098.8127326    Jupiter         Umbra       403           3098.8127326
30 Nov 2031 08:08:45.497    30 Nov 2031 09:00:24.043      3098.5460586    Jupiter         Umbra       404           3098.5460586
30 Nov 2031 11:40:11.192    30 Nov 2031 12:31:49.160      3097.9679109    Jupiter         Umbra       405           3097.9679109
30 Nov 2031 15:11:36.742    30 Nov 2031 16:03:13.896      3097.1536759    Jupiter         Umbra       406           3097.1536759
30 Nov 2031 18:43:02.189    30 Nov 2031 19:34:38.440      3096.2507978    Jupiter         Umbra       407           3104.9805891
30 Nov 2031 19:34:38.440    30 Nov 2031 19:34:47.170      8.7297913386    Jupiter         Penumbra    407           3104.9805891
30 Nov 2031 22:14:27.605    30 Nov 2031 23:06:03.051      3095.4456366    Jupiter         Umbra       408           3095.4456366
01 Dec 2031 01:45:53.076    01 Dec 2031 02:37:27.996      3094.9198951    Jupiter         Umbra       409           3094.9198951
01 Dec 2031 05:17:18.683    01 Dec 2031 06:08:53.489      3094.8065414    Jupiter         Umbra       410           3094.8065414
01 Dec 2031 08:48:44.479    01 Dec 2031 09:40:19.635      3095.1559668    Jupiter         Umbra       411           3095.1559668
01 Dec 2031 12:20:10.478    01 Dec 2031 13:11:46.400      3095.9217423    Jupiter         Umbra       412           3095.9217423
01 Dec 2031 15:51:36.651    01 Dec 2031 16:43:13.622      3096.9713123    Jupiter         Umbra       413           3096.9713123
01 Dec 2031 19:23:02.930    01 Dec 2031 20:14:41.051      3098.1206397    Jupiter         Umbra       414           3106.8296167
01 Dec 2031 20:14:41.051    01 Dec 2031 20:14:49.760      8.7089769775    Jupiter         Penumbra    414           3106.8296167
01 Dec 2031 22:54:29.233    01 Dec 2031 23:46:08.416      3099.1834137    Jupiter         Umbra       415           3099.1834137
02 Dec 2031 02:25:55.477    02 Dec 2031 03:17:35.496      3100.0182242    Jupiter         Umbra       416           3100.0182242
02 Dec 2031 05:57:21.610    02 Dec 2031 06:49:02.172      3100.5627086    Jupiter         Umbra       417           3100.5627086
02 Dec 2031 09:28:47.612    02 Dec 2031 10:20:28.457      3100.8448774    Jupiter         Umbra       418           3100.8448774
02 Dec 2031 13:00:13.506    02 Dec 2031 13:51:54.477      3100.9714327    Jupiter         Umbra       419           3100.9714327
02 Dec 2031 16:31:39.348    02 Dec 2031 17:23:20.445      3101.0974994    Jupiter         Umbra       420           3101.0974994
02 Dec 2031 20:03:05.210    02 Dec 2031 20:54:46.595      3101.3851286    Jupiter         Umbra       421           3101.3851286
02 Dec 2031 23:34:31.165    03 Dec 2031 00:26:13.124      3101.9597282    Jupiter         Umbra       422           3101.9597282
03 Dec 2031 03:05:57.262    03 Dec 2031 03:57:40.138      3102.8751930    Jupiter         Umbra       423           3102.8751930
03 Dec 2031 06:37:23.518    03 Dec 2031 07:29:07.616      3104.0976573    Jupiter         Umbra       424           3104.0976573
03 Dec 2031 10:08:49.907    03 Dec 2031 11:00:35.421      3105.5136681    Jupiter         Umbra       425           3105.5136681
03 Dec 2031 13:40:16.370    03 Dec 2031 14:32:03.332      3106.9617618    Jupiter         Umbra       426           3106.9617618
03 Dec 2031 17:11:42.832    03 Dec 2031 18:03:31.110      3108.2785564    Jupiter         Umbra       427           3108.2785564
03 Dec 2031 20:43:09.221    03 Dec 2031 21:34:58.566      3109.3446767    Jupiter         Umbra       428           3109.3446767
04 Dec 2031 00:14:35.493    04 Dec 2031 01:06:25.609      3110.1165815    Jupiter         Umbra       429           3110.1165815
04 Dec 2031 03:46:01.636    04 Dec 2031 04:37:52.273      3110.6373051    Jupiter         Umbra       430           3110.6373051
04 Dec 2031 07:17:27.679    04 Dec 2031 08:09:18.704      3111.0247062    Jupiter         Umbra       431           3111.0247062
04 Dec 2031 10:48:53.683    04 Dec 2031 11:40:45.123      3111.4400699    Jupiter         Umbra       432           3111.4400699
04 Dec 2031 14:20:19.722    04 Dec 2031 15:12:11.768      3112.0463833    Jupiter         Umbra       433           3112.0463833
04 Dec 2031 17:51:45.868    04 Dec 2031 18:43:38.833      3112.9650761    Jupiter         Umbra       434           3112.9650761
04 Dec 2031 21:23:12.169    04 Dec 2031 22:15:06.409      3114.2403163    Jupiter         Umbra       435           3114.2403163
05 Dec 2031 00:54:38.634    05 Dec 2031 01:46:34.456      3115.8222052    Jupiter         Umbra       436           3115.8222052
05 Dec 2031 04:26:05.230    05 Dec 2031 05:18:02.806      3117.5753062    Jupiter         Umbra       437           3117.5753062
05 Dec 2031 07:57:31.888    05 Dec 2031 08:49:31.199      3119.3110089    Jupiter         Umbra       438           3119.3110089
05 Dec 2031 11:28:58.517    05 Dec 2031 12:20:59.352      3120.8347981    Jupiter         Umbra       439           3120.8347981
05 Dec 2031 15:00:25.034    05 Dec 2031 15:52:27.029      3121.9947967    Jupiter         Umbra       440           3121.9947967
05 Dec 2031 18:31:51.377    05 Dec 2031 19:23:54.094      3122.7175604    Jupiter         Umbra       441           3122.7175604
05 Dec 2031 22:03:17.522    05 Dec 2031 22:55:20.543      3123.0218015    Jupiter         Umbra       442           3123.0218015
06 Dec 2031 01:34:33.471    06 Dec 2031 01:34:43.486      10.014378140    Jupiter         Penumbra    443           3133.0238708
06 Dec 2031 01:34:43.486    06 Dec 2031 02:26:46.495      3123.0094927    Jupiter         Umbra       443           3133.0238708
06 Dec 2031 05:06:09.321    06 Dec 2031 05:58:12.159      3122.8375928    Jupiter         Umbra       444           3122.8375928
06 Dec 2031 08:37:35.101    06 Dec 2031 09:29:37.779      3122.6775109    Jupiter         Umbra       445           3122.6775109
06 Dec 2031 12:09:00.900    06 Dec 2031 13:01:03.571      3122.6709623    Jupiter         Umbra       446           3122.6709623
06 Dec 2031 15:40:26.775    06 Dec 2031 16:32:29.669      3122.8938023    Jupiter         Umbra       447           3122.8938023
